time,rating,text,name,category,latitude,longitude,safety,cleanliness,infrastructure,nature,attractions,heritage,costs,other,created_at,id,lead_time,updated_at
1502577268143,5.0,"Union Square Park's playground, tho on the small side, is modern and filled with fun things for kids to play with. There's a giant orb/slide for climbing and sliding and a few other modern playground items in addition to slides and swings. Can get very crowded at peak times.",Union Square Park,Park||City park||Tourist attraction,40.735823499999995,-73.9905215,notmentioned,notmentioned,notmentioned,positive,positive,notmentioned,notmentioned,neutral,,,,
1555841530590,2.0,The supervisor was very rude to me. The pool it self was clean. The staff members picked at me.,Liberty Pool,Public swimming pool||Outdoor swimming pool,40.701406,-73.78407899999999,negative,positive,notmentioned,notmentioned,notmentioned,notmentioned,notmentioned,negative,,,,
1582098542744,5.0,Lovely experience,Strawberry Fields,Tourist attraction||Historical landmark||Scenic spot,40.7758392,-73.9747655,notmentioned,notmentioned,notmentioned,notmentioned,positive,notmentioned,notmentioned,positive,,,,
1502312736547,4.0,The bus went right to the airport in Jersey. The only thing that was strange was that there was no information about the bus written anywhere. The reason we found it was because a strange guy off the street showed it to us and asked for a tip and our Subway cards. The information desk had a line of about 39 people. There should have been a sign or something. The bus was right outside.,Port Authority Midtown Bus Terminal,Bus station,40.7569006,-73.9902798,negative,notmentioned,negative,notmentioned,notmentioned,notmentioned,negative,negative,,,,
1523188235887,3.0,"It's a little inside, and it's probably out after a short stroll, but you can also take a walk around, very close to the food market!",Artists & Fleas Williamsburg,Flea market||Boutique||Clothing store||Fashion accessories store||Gift shop||Health and beauty shop||Home goods store||Jewelry store||Night market||Record store||Vintage clothing store,40.719896,-73.9612521,notmentioned,notmentioned,notmentioned,notmentioned,positive,notmentioned,notmentioned,neutral,,,,
1490704779251,5.0,I love the garden. All the sports and entertainment center. Bring out all your family and friends for a great day or night,Madison Square Garden,Arena||Event venue||Stadium||Tourist attraction,40.7505045,-73.9934387,notmentioned,notmentioned,notmentioned,positive,positive,notmentioned,notmentioned,positive,,,,
1533691947293,5.0,Just fantastic as always Rod Stewart!!,Madison Square Garden,Arena||Event venue||Stadium||Tourist attraction,40.7505045,-73.9934387,notmentioned,notmentioned,notmentioned,notmentioned,positive,notmentioned,notmentioned,positive,,,,
1537379165584,1.0,"Charge a fee do something, but I will never go back on that island if there is only one ferry working back and fourth. With the safety factor that will always be there, it takes way to long to get back and fourth.",Governors Island National Monument,Monument||Historical landmark||Tourist attraction,40.6919879,-74.01599499999999,negative,notmentioned,negative,notmentioned,notmentioned,notmentioned,negative,notmentioned,,,,
1502489062624,5.0,This place is about people of all time periods in history.,Brooklyn Museum,Art museum||Museum||Tourist attraction,40.6712062,-73.9636306,notmentioned,notmentioned,notmentioned,notmentioned,notmentioned,positive,notmentioned,neutral,,,,
1584193866244,4.0,Beautiful!,St. Paul's Chapel of Trinity Church Wall Street,Episcopal church||Place of worship||Tourist attraction,40.7113281,-74.0091831,notmentioned,notmentioned,notmentioned,positive,notmentioned,notmentioned,notmentioned,notmentioned,,,,
1488935817844,5.0,Great park for running.,Prospect Park,Park||Tourist attraction,40.6602037,-73.9689558,notmentioned,notmentioned,notmentioned,positive,notmentioned,notmentioned,notmentioned,notmentioned,,,,
1564367033505,5.0,Super nice people here and clean too,Jacob Riis Park,Park||Public beach||Tourist attraction,40.567069499999995,-73.8717702,notmentioned,positive,notmentioned,notmentioned,notmentioned,notmentioned,notmentioned,positive,,,,
1535511852316,5.0,Issa good place for family and friends,Bronx Zoo,Zoo||Tourist attraction,40.8505949,-73.8769982,notmentioned,notmentioned,notmentioned,notmentioned,positive,notmentioned,notmentioned,positive,,,,
1477107208681,1.0,Threw away my money. They should have told me that it would be nearly impossible for someone who is 6'4 to even enter the initial obstacle. Crazy. Seems like an awesome experience for anyone who isn't a giraffe like me.,Bane Haunted House,Haunted house||Tourist attraction,40.763589,-73.9976063,notmentioned,notmentioned,negative,notmentioned,positive,notmentioned,negative,notmentioned,,,,
1565203766225,4.0,Edgar Allen Poe and his buddies used to hang out here and drink beer!,River Run Playground,Playground||Tourist attraction,40.7870938,-73.9821618,notmentioned,notmentioned,notmentioned,notmentioned,positive,positive,notmentioned,positive,,,,
1567217785958,3.0,Way too mnay bats at night,Fort Greene Park,Park||Tourist attraction,40.6914322,-73.975246,negative,notmentioned,notmentioned,notmentioned,notmentioned,notmentioned,notmentioned,notmentioned,,,,
1563277745928,5.0,Love the Ave,Jamaica Coliseum,Shopping mall,40.7074594,-73.7963681,notmentioned,notmentioned,notmentioned,notmentioned,positive,notmentioned,notmentioned,positive,,,,
1525038031942,5.0,Serene amazing place!,Azalea Pond,Scenic spot||Tourist attraction,40.7772608,-73.9706643,notmentioned,notmentioned,notmentioned,positive,positive,notmentioned,notmentioned,positive,,,,
1538610048675,5.0,Super nice and good sound,Radio City Music Hall,Performing arts theater||Concert hall||Live music venue||Tourist attraction,40.759975999999995,-73.9799772,notmentioned,notmentioned,notmentioned,notmentioned,positive,notmentioned,notmentioned,notmentioned,,,,
1488071182557,5.0,"Beautiful, iconic landmark.",Grand Central Terminal,Train station,40.7527262,-73.9772294,notmentioned,notmentioned,notmentioned,notmentioned,notmentioned,positive,notmentioned,notmentioned,,,,
1551466055900,3.0,Has your immediate needs,Rochdale Village Shopping Center,Shopping mall,40.6785566,-73.77747889999999,notmentioned,notmentioned,notmentioned,notmentioned,notmentioned,notmentioned,notmentioned,neutral,,,,
1483144277173,5.0,For only $2 you can ride in this beautiful carousel. The view of City from here is breathtaking,Jane's Carousel,Amusement park ride||Tourist attraction,40.7044242,-73.9923835,notmentioned,notmentioned,positive,positive,positive,notmentioned,positive,notmentioned,,,,
1563370653885,5.0,Its a beautiful park.,Canarsie Park,Park||Tourist attraction,40.6277696,-73.89508649999999,notmentioned,notmentioned,notmentioned,positive,notmentioned,notmentioned,notmentioned,notmentioned,,,,
1464917036915,4.0,"Very relaxing, and great energy.",Conservatory Water,Tourist attraction,40.7742331,-73.9671147,notmentioned,notmentioned,notmentioned,notmentioned,positive,notmentioned,notmentioned,positive,,,,
1484744769183,5.0,Can see the court really well even from the upper level. Really cool entrance and a little practice court gives good views of players doing individual drills with a trainer.,Barclays Center,Arena||Sports complex,40.6826465,-73.97541559999999,notmentioned,notmentioned,positive,notmentioned,positive,positive,notmentioned,notmentioned,,,,
1583802909767,5.0,You can find everything here. Is a very good mall with a very good food.,Green Acres Mall,Shopping mall||Clothing store||Restaurant,40.6627613,-73.7196783,notmentioned,notmentioned,positive,notmentioned,positive,notmentioned,notmentioned,positive,,,,
1604505089618,5.0,"Beyond a magnificent experience viewing the scenes of New York City’s Skyline while climbing the stairs of the vessel and feeling the gentle wind kissing your cheeks. Absolutely Breathtaking and I’d recommend a visit once you’re in the big Apple!!! Shopping mall is right next to it and u can walk around the popular area. There’s Macy’s, Penn station, etc right around the neighborhood. While you’re there check out The Edge NYC also!! Tickets are required to visit which can be purchased right there by scanning a barcode and guess what??? It’s free of cost!!!!!!",Vessel,Tourist attraction,40.7538073,-74.0021537,notmentioned,notmentioned,positive,positive,positive,notmentioned,positive,positive,,,,
1485887513193,4.0,"It is very good, it is small but it has its charm, when you go up to the first floor you do it by a narrow spiral staircase. And the views are wonderful.",Belvedere Castle,Castle||Historical landmark||Scenic spot||Tourist attraction,40.7794302,-73.9690677,notmentioned,notmentioned,positive,positive,positive,notmentioned,notmentioned,notmentioned,,,,
1566103937631,5.0,Great movie theater.,42nd Street Entertainment Center,Performing arts theater||Shopping mall,40.7568845,-73.9881335,notmentioned,notmentioned,notmentioned,notmentioned,positive,notmentioned,notmentioned,notmentioned,,,,
1560166339511,5.0,"Brookfield Place is not just a shopping experience. They have live shows, holiday parties for children and adults and Santa! There is a huge selection of restaurants to choose from. The surrounding area is beautiful and it sits right on the water. Nice place to spend a few hours if you're in the city.",Brookfield Place,Shopping mall||Tourist attraction,40.712716799999995,-74.01528239999999,notmentioned,notmentioned,positive,positive,positive,notmentioned,notmentioned,positive,,,,
1558735604702,5.0,An island of calm in a noisy part of the city.,Flatiron Building,Building||Historical place||Tourist attraction,40.7410605,-73.9896986,notmentioned,notmentioned,notmentioned,notmentioned,notmentioned,notmentioned,notmentioned,positive,,,,
1548625267817,5.0,In chealse market,Artists & Fleas Chelsea,Market||Boutique||Gift shop||Record store||Tourist attraction||Vintage clothing store,40.7428736,-74.0073428,notmentioned,notmentioned,notmentioned,notmentioned,positive,notmentioned,notmentioned,notmentioned,,,,
1569689516522,5.0,"The best place to play sports, share in the grass, rest or listen to a concert with the view of NYC",The Great Lawn,Park||Athletic field||Baseball field||Softball field||Tourist attraction,40.7816915,-73.96641919999999,notmentioned,notmentioned,notmentioned,positive,positive,notmentioned,notmentioned,positive,,,,
1574652479805,3.0,Good place to shop,Hugh J. Grant Circle,Park,40.8330305,-73.8609006,notmentioned,notmentioned,notmentioned,notmentioned,positive,notmentioned,notmentioned,positive,,,,
1576975240910,4.0,Testing are good!,Essex Market,Market||Produce market||Restaurant||Tourist attraction,40.7180004,-73.98819,notmentioned,notmentioned,notmentioned,notmentioned,notmentioned,notmentioned,notmentioned,positive,,,,
1527391872660,5.0,"I think it is the most beautiful, clean and up to date Subway station in NYC.",34 St - Hudson Yards,Subway station,40.7549713,-74.0010084,notmentioned,positive,positive,notmentioned,notmentioned,notmentioned,notmentioned,positive,,,,
1526864388599,5.0,Clean environment,Pelham Bay Park,Park||Athletic park||Basketball court||Dog park||Nature preserve||Playground||Soccer field||Tourist attraction,40.867014399999995,-73.81006339999999,notmentioned,positive,notmentioned,notmentioned,notmentioned,notmentioned,notmentioned,notmentioned,,,,
1560902911559,5.0,"Fabulous, we remain speechless",One World Trade Center,Business center||Tourist attraction,40.7127431,-74.0133795,notmentioned,notmentioned,notmentioned,notmentioned,positive,notmentioned,notmentioned,positive,,,,
1575770228912,3.0,Basically a high end specialty mall and small flea market.,Chelsea Market,Shopping mall,40.7424509,-74.0059581,notmentioned,notmentioned,positive,notmentioned,positive,notmentioned,neutral,neutral,,,,
1604587968309,5.0,"This is incredible place to visit now. So beautiful, so amazing! I used to go often there since April, 2020",Washington Square Park,Park||Tourist attraction,40.7308838,-73.997332,notmentioned,notmentioned,notmentioned,positive,positive,notmentioned,notmentioned,positive,,,,
1577561046646,5.0,Great skating experience in the middle of the city. Beautiful!,Bryant Park,Park||Tourist attraction,40.7535965,-73.9832326,notmentioned,notmentioned,notmentioned,positive,positive,notmentioned,notmentioned,positive,,,,
1580515700844,5.0,Love it! Amazing FDNY!,Ghostbusters Headquarters,Tourist attraction,40.7195656,-74.0066124,notmentioned,notmentioned,notmentioned,notmentioned,positive,notmentioned,notmentioned,positive,,,,
1573959998502,5.0,The Christmas Show should be everyone's holiday tradition. The production quality is fantastic and the sound here is perfect. Nothing beats seeing the Rockettes live.,Radio City Music Hall,Performing arts theater||Concert hall||Live music venue||Tourist attraction,40.759975999999995,-73.9799772,notmentioned,notmentioned,notmentioned,notmentioned,positive,notmentioned,notmentioned,positive,,,,
1541398479441,4.0,These guys are okay. Under the new management their response time have improved immensely.and the parking lot is not clustered and jam packed no more.,The Landing - Valet Parking for LaGuardia Airport,Parking lot||Airport shuttle service||Park||Park & ride||Parking garage||Parking lot for motorcycles||Valet parking service,40.768966299999995,-73.875844,positive,notmentioned,positive,notmentioned,notmentioned,notmentioned,notmentioned,positive,,,,
1560402138698,5.0,It's a beautiful park near to WTC its perfect to take pictures or only take a rest.,Zuccotti Park,Park||Tourist attraction,40.7092649,-74.011262,notmentioned,notmentioned,notmentioned,positive,positive,notmentioned,notmentioned,notmentioned,,,,
1567040605823,5.0,Top,Bowling Green,Park||Tourist attraction,40.7049774,-74.0136509,notmentioned,notmentioned,notmentioned,notmentioned,notmentioned,notmentioned,notmentioned,notmentioned,,,,
1556214762275,5.0,Lots of branded shoes are in the shopping mall.,The Shops at SkyView Center,Shopping mall||Restaurant,40.7572609,-73.8356116,notmentioned,notmentioned,notmentioned,notmentioned,positive,notmentioned,notmentioned,notmentioned,,,,
1555174427756,4.0,Kohls is closing! Sorry to see it go!,Rego Center,Shopping mall,40.7332336,-73.86381639999999,notmentioned,notmentioned,notmentioned,notmentioned,notmentioned,notmentioned,negative,negative,,,,
1500461203357,4.0,Nice location,Queens Place Mall,Shopping mall,40.7355974,-73.8745378,notmentioned,notmentioned,notmentioned,positive,notmentioned,notmentioned,notmentioned,positive,,,,
1571157501978,5.0,READY FOR THE 2019-2020 SEASON! I LOVE THIS PLACE I LOVE BROOKLYN AND I LOVE WHAT THIS VENUE BROUGHT TO OUR CITY.,Barclays Center,Arena||Sports complex,40.6826465,-73.97541559999999,notmentioned,notmentioned,notmentioned,notmentioned,positive,notmentioned,notmentioned,positive,,,,
1585513525555,5.0,Free chocolate upon admission,Hershey's Chocolate World,Chocolate shop||Candy store||Tourist attraction,40.7593411,-73.9843095,notmentioned,notmentioned,notmentioned,notmentioned,notmentioned,notmentioned,positive,notmentioned,,,,
1447716448470,5.0,if you come around 8 pm at summer time you can see fireflies all over the park. an amazing view in the middle of the city.,Tompkins Square Park,City park||Basketball court||Dog park||Handball court||Park||Playground||Public swimming pool,40.726429499999995,-73.9817841,notmentioned,notmentioned,notmentioned,positive,positive,notmentioned,notmentioned,positive,,,,
1510136071554,5.0,Work here,Brookfield Place,Shopping mall||Tourist attraction,40.712716799999995,-74.01528239999999,notmentioned,notmentioned,notmentioned,notmentioned,notmentioned,notmentioned,notmentioned,notmentioned,,,,
1492272907401,5.0,Great tours love the history of it all,Tenement Museum,History museum||Museum||Tourist attraction,40.7188154,-73.9901187,notmentioned,notmentioned,notmentioned,notmentioned,positive,positive,notmentioned,notmentioned,,,,
1525747212403,5.0,Nice to walk,Kissena Park,Park||City park||Tourist attraction,40.7461191,-73.8076036,notmentioned,notmentioned,notmentioned,positive,notmentioned,notmentioned,notmentioned,positive,,,,
1619880721270,5.0,"It is a unique structure in the world, totally eradicates the concept of a classic museum. A beautiful and enlightening experience.",Solomon R. Guggenheim Museum,Modern art museum||Art museum||Museum||Tourist attraction,40.7829796,-73.9589706,notmentioned,notmentioned,notmentioned,notmentioned,notmentioned,positive,notmentioned,notmentioned,,,,
1483479624361,3.0,Quite Crowded,The Shops at Columbus Circle,Shopping mall,40.7685811,-73.9831811,notmentioned,notmentioned,notmentioned,notmentioned,notmentioned,notmentioned,notmentioned,negative,,,,
1531485371330,5.0,A wonderful place for kids to grandparents. Beautiful cityscapes with lots of information on the fish and the Sea environment . Special quests for kids. Special seats for disabled at shows. Indoor and outdoor sea creatures. The new Shark House is amazing.,New York Aquarium,Aquarium||Tourist attraction,40.574010099999995,-73.9760005,notmentioned,notmentioned,positive,positive,positive,notmentioned,notmentioned,positive,,,,
1544655752513,2.0,"It looked good, but when I went there was a private event and it was not accessible.",The Jazz Gallery,Live music venue||Art gallery||Non-profit organization,40.7446278,-73.98858059999999,notmentioned,notmentioned,negative,notmentioned,notmentioned,notmentioned,notmentioned,negative,,,,
1556460663304,5.0,"Very good,best parking time is after 7pm on south side of queens blvd. parking meters are free.",Queens Center,Shopping mall||Clothing store||Restaurant,40.734483399999995,-73.8696793,notmentioned,notmentioned,positive,notmentioned,notmentioned,notmentioned,positive,notmentioned,,,,
1547499741947,5.0,It is a great mall and has a variety of stores,Kings Plaza Shopping Center,Shopping mall||Clothing store||Restaurant,40.6101191,-73.920052,notmentioned,notmentioned,positive,notmentioned,positive,notmentioned,notmentioned,positive,,,,
1504186818668,1.0,"Really short tour that wasn't worth the price. They only show you either the Seth Meyers stage or Jimmy Fallon and staff working in the production room. Although, creating your own version of late night television show was fun, it definitely wasn't worth the price. I highly don't recommend it, studio tours in LA are much better.",The Tour at NBC Studios,Tourist attraction,40.7593651,-73.98009789999999,negative,notmentioned,notmentioned,notmentioned,positive,notmentioned,negative,negative,,,,
1469936086634,5.0,"Great playground for all ages, and really fun to go to in the summer with the huge sprinklers",American Playground,Playground||Basketball court||City park||Handball court||Park||Public bathroom||Tourist attraction,40.728831,-73.957855,notmentioned,notmentioned,notmentioned,positive,positive,notmentioned,notmentioned,notmentioned,,,,
1452479468416,4.0,Fine place to go to at NYC right near the central park,Columbus Circle,Historical landmark,40.7680797,-73.9818957,notmentioned,notmentioned,notmentioned,positive,positive,notmentioned,notmentioned,positive,,,,
1447725966292,5.0,This place was amazing. They had a great maker-type space in their museum that was just beautiful.,New York Hall Of Science,Science museum||Children's museum||Tourist attraction,40.7472583,-73.8516925,notmentioned,notmentioned,notmentioned,notmentioned,positive,positive,notmentioned,positive,,,,
1562206842853,2.0,Is being renovated,Trinity Church,Episcopal church||Place of worship||Tourist attraction,40.7079928,-74.011594,notmentioned,notmentioned,neutral,notmentioned,notmentioned,notmentioned,notmentioned,neutral,,,,
1473359410015,4.0,Wonderful but the entrance fee was way to high.,Whitney Museum of American Art,Modern art museum||Art museum||Museum||Tourist attraction,40.7395877,-74.0088629,notmentioned,notmentioned,notmentioned,notmentioned,positive,notmentioned,negative,notmentioned,,,,
1531091733095,4.0,Nice mall. Big square,Queens Center,Shopping mall||Clothing store||Restaurant,40.734483399999995,-73.8696793,notmentioned,notmentioned,positive,notmentioned,notmentioned,notmentioned,notmentioned,positive,,,,
1488455103146,5.0,Loved being there,Friends Apartment,Tourist attraction,40.7324118,-74.0053334,notmentioned,notmentioned,notmentioned,notmentioned,positive,notmentioned,notmentioned,positive,,,,
1507924973553,3.0,Strip mall,Whitestone Shopping Center,Shopping mall,40.7881651,-73.8090754,notmentioned,notmentioned,neutral,notmentioned,notmentioned,notmentioned,notmentioned,neutral,,,,
1566145567904,5.0,Got everything I wanted,Forest Promenade Shopping Plaza,Shopping mall,40.624083,-74.1480584,notmentioned,notmentioned,notmentioned,notmentioned,notmentioned,notmentioned,notmentioned,positive,,,,
1560106288277,5.0,I love NY,Union Square Park,Park||City park||Tourist attraction,40.735823499999995,-73.9905215,notmentioned,notmentioned,notmentioned,notmentioned,positive,notmentioned,notmentioned,positive,,,,
1490705214249,4.0,Good shopping with competitive price in the middle of New York,Manhattan Mall,Shopping mall,40.749310699999995,-73.98929849999999,notmentioned,notmentioned,notmentioned,notmentioned,positive,notmentioned,positive,notmentioned,,,,
1616463883294,4.0,Beautiful place a good hike,Westfield World Trade Center,Shopping mall,40.7115663,-74.0114261,notmentioned,notmentioned,notmentioned,positive,positive,notmentioned,notmentioned,notmentioned,,,,
1507166021732,4.0,Cute short detour. Come later towards closing time to avoid crowds!,SeaGlass Carousel,Amusement park ride||Tourist attraction,40.7021532,-74.0150019,notmentioned,notmentioned,notmentioned,notmentioned,positive,notmentioned,notmentioned,positive,,,,
1556405235043,5.0,Had an amazing time here with my daughter. The staff was very helpful and welcoming. They also have accommodations for Birthday parties. I’ll definitely visit again and recommend family and friends!,Sky Zone Trampoline Park,Amusement center||Sports complex||Theme park||Tourist attraction,40.9112441,-73.7803259,notmentioned,notmentioned,positive,notmentioned,positive,notmentioned,notmentioned,positive,,,,
1513189615355,1.0,"Statue cruises are fine, I would give them 5 stars for what you get for the buck. However, there is an insane number of scam sellers in the area that pretend to be StatueCruises employees and hawk on tourists. They have jackets that match the StatueCruises colors, they have officially looking employee cards on their necks and they even say they work for the StatueCruises company. Except they are not. They jump on you as soon as you leave the metro and lie that tickets are sold out for the day and try to sell you express tours. Then they take you to shuttle buses that leave for boats docket somewhere in Brooklyn, which you realize only after paying. A total scam. We were smart enough not to pay, but saw lots of tourists that did and were being boarded into the shuttles. When we declined their offer we were shouted at, harassed and intimidated. This was in the middle of a day. And the worst part was that the police were present just around the corner but did nothing to stop them. This thing needs to be sorted out, otherwise it is a big shame on the company and the NEW YORK CITY as a whole.",Statue City Cruises Battery Park/ Liberty Island,Tourist attraction||Boat tour agency||Ferry service||Historical landmark||Sculpture||Tour agency,40.7034977,-74.01661,negative,notmentioned,negative,notmentioned,positive,notmentioned,positive,negative,,,,
1599335911935,5.0,VERY CLEAN AND FRESH. HAS A POOL,Sunset Park,Park||Tourist attraction,40.6479517,-74.0037443,notmentioned,positive,notmentioned,notmentioned,notmentioned,notmentioned,notmentioned,notmentioned,,,,
1566433958448,5.0,"Well, the building of my favorite series",Friends Apartment,Tourist attraction,40.7324118,-74.0053334,notmentioned,notmentioned,notmentioned,notmentioned,positive,positive,notmentioned,notmentioned,,,,
1536358858713,5.0,For fans of Spiderman,Flatiron Building,Building||Historical place||Tourist attraction,40.7410605,-73.9896986,notmentioned,notmentioned,notmentioned,notmentioned,positive,notmentioned,notmentioned,notmentioned,,,,
1582338406583,5.0,A place to relax nice,Pier 64 at Hudson River Park,Park||Marina||Tourist attraction,40.7507936,-74.0096138,notmentioned,notmentioned,notmentioned,positive,notmentioned,notmentioned,notmentioned,positive,,,,
1554142862546,5.0,"Very pretty cathedral in the middle of the buildings of Manhattan, worth the detour outside as inside! Inside, do not miss the beautiful mosaics on the ground! Visit quickly enough, nice neighborhood!",St. Patrick's Cathedral,Cathedral||Catholic church||Tourist attraction,40.7586117,-73.9761953,notmentioned,notmentioned,neutral,positive,notmentioned,positive,notmentioned,positive,,,,
1545014228987,3.0,Getting ready,Christmas House Bronx,Museum,40.857973,-73.839832,notmentioned,notmentioned,notmentioned,notmentioned,notmentioned,notmentioned,notmentioned,neutral,,,,
1543679132667,5.0,"They have great stores like foot locker, Model's sporting goods and lots more, so come on down to shop til you drop and get lunch at McDonald's and Popeyes too.",Main St,Subway station,40.7595582,-73.82992209999999,notmentioned,notmentioned,notmentioned,notmentioned,positive,notmentioned,positive,positive,,,,
1488855118561,3.0,Near the entrance of Central Park. Designer stores.,Manhattan Mall,Shopping mall,40.749310699999995,-73.98929849999999,notmentioned,notmentioned,positive,positive,positive,notmentioned,notmentioned,notmentioned,,,,
1535230294446,3.0,Nice but you have to pay extra to see certain things like the gorillas.,Bronx Zoo,Zoo||Tourist attraction,40.8505949,-73.8769982,notmentioned,notmentioned,notmentioned,notmentioned,notmentioned,notmentioned,negative,positive,,,,
1583444740797,5.0,Cute park to visit,Alexander Hamilton Playground,Playground||Park,40.8230954,-73.95113359999999,notmentioned,notmentioned,notmentioned,positive,positive,notmentioned,notmentioned,notmentioned,,,,
1462895500951,3.0,"I grew up going to that pool, and it was great back in the 80s and early 90s. Maintenance and security could be a whole lot better though. Otherwise, it's a nice place to swim in.",Crotona Pool,Public swimming pool||Outdoor swimming pool,40.840112399999995,-73.8979971,positive,notmentioned,notmentioned,notmentioned,positive,notmentioned,notmentioned,negative,,,,
1608254002528,5.0,There is not much people right now on this times. Best time to visit,Father Duffy Square,Tourist attraction||Historical landmark||Park,40.7590077,-73.9850222,notmentioned,notmentioned,notmentioned,notmentioned,neutral,notmentioned,notmentioned,neutral,,,,
1559503583031,5.0,"Shade, sun, the perfect place to rest, picnic",Sheep Meadow,Park||Tourist attraction,40.7717813,-73.9748418,notmentioned,notmentioned,notmentioned,positive,positive,notmentioned,notmentioned,notmentioned,,,,
1580236452640,5.0,Loved the lights,Bronx Zoo,Zoo||Tourist attraction,40.8505949,-73.8769982,notmentioned,notmentioned,notmentioned,notmentioned,positive,notmentioned,notmentioned,notmentioned,,,,
1618301958116,4.0,I love shopping at Gateway and I always finish shopping and go get me something to eat and mosey on to the bus stop with a smile on my face oh and my heavy bags cuz I always over shop,Gateway Center,Shopping mall,40.6525,-73.8713889,notmentioned,notmentioned,positive,notmentioned,positive,notmentioned,notmentioned,positive,,,,
1561562860591,4.0,"Great experience. Everything was great there - only the beer price was personal hell. Pils was missing during the sport therefore. Unusual, but it was a great experience.",Barclays Center,Arena||Sports complex,40.6826465,-73.97541559999999,notmentioned,notmentioned,notmentioned,notmentioned,positive,notmentioned,negative,positive,,,,
1566385228491,5.0,Wonderful!!!,Central Park Zoo,Zoo||Tourist attraction,40.767778,-73.9718335,notmentioned,notmentioned,notmentioned,notmentioned,positive,notmentioned,notmentioned,notmentioned,,,,
1582047423674,5.0,"Great place, clean, beautiful, elegant. I worked here as a security guard in the fall of 2019. Nice and interesting selection of everything! An interesting collection of gold jewelry. Been there many times in early autumn in 2019! Hello guys from me, your former Security Guard - Alex ..",Mociun Fine Jewelry & Home,Jewelry designer||Art gallery||Home goods store||Jewelry store||Stylist,40.714014299999995,-73.9594177,positive,positive,notmentioned,positive,positive,notmentioned,notmentioned,positive,,,,
1527469598463,4.0,"Super nice place very artistic ,several service and oferts",Chelsea Market,Shopping mall,40.7424509,-74.0059581,notmentioned,notmentioned,notmentioned,notmentioned,positive,positive,positive,positive,,,,
1604708821647,5.0,Very special place!,St Peter's Roman Catholic Church,Catholic church||Tourist attraction,40.712483299999995,-74.00953059999999,notmentioned,notmentioned,notmentioned,notmentioned,positive,notmentioned,notmentioned,positive,,,,
1578432327415,4.0,"If you want to visit the Statue of Liberty, this is it. The cruise departs at regular intervals - book online ahead of time to secure a reservation if you want to climb up the statue to the pedestal or crown when you get there. The cruise itself stops at both liberty island (includes free audio tour) and Ellis Island.",Statue City Cruises Battery Park/ Liberty Island,Tourist attraction||Boat tour agency||Ferry service||Historical landmark||Sculpture||Tour agency,40.7034977,-74.01661,notmentioned,notmentioned,neutral,notmentioned,positive,positive,notmentioned,neutral,,,,
1567132366167,4.0,Spacious and fun filling,Springfield Park,Park||Tourist attraction,40.6629975,-73.7612001,notmentioned,notmentioned,notmentioned,notmentioned,positive,notmentioned,notmentioned,positive,,,,
1570302436911,5.0,"Maximum! Remembering your creator is too much ...... having done that at that time ,, hired Napoleon Hill ,,,,,,,,,,,,, to do the SUPER study that culminated with your SUPER Book about..................",Carnegie Hall,Concert hall||Live music venue||Tourist attraction,40.7651258,-73.97992359999999,notmentioned,notmentioned,notmentioned,notmentioned,notmentioned,positive,notmentioned,notmentioned,,,,
1530811604771,5.0,Such a great family day. Wednesday is donation day and you can save a couple of dollars. You can bring your own food and drinks. Be prepared to walk alot and try to make a plan before hand to maximize your time there.,Bronx Zoo,Zoo||Tourist attraction,40.8505949,-73.8769982,notmentioned,notmentioned,notmentioned,notmentioned,positive,notmentioned,positive,positive,,,,
1582214062312,4.0,"Child loved it, only small but what is there is well cared for in lovely enclosures, nice for a wander through if you have a few hours to spare",Central Park Zoo,Zoo||Tourist attraction,40.767778,-73.9718335,notmentioned,notmentioned,notmentioned,positive,positive,notmentioned,notmentioned,positive,,,,
1597693937876,5.0,Peaceful amid the bustle of city,Madison Square Park,Park||Tourist attraction,40.7421872,-73.9880175,notmentioned,notmentioned,notmentioned,positive,notmentioned,notmentioned,notmentioned,positive,,,,
1601744222620,5.0,A special and extraordinary place. Always a joy to visit.,The Met Cloisters,Art museum||Museum||Tourist attraction,40.8648628,-73.9317274,notmentioned,notmentioned,notmentioned,positive,positive,notmentioned,notmentioned,positive,,,,
1604665231382,5.0,Very nice and clean,Stockton Playground,Playground,40.697270499999995,-73.9486725,notmentioned,positive,notmentioned,notmentioned,notmentioned,notmentioned,notmentioned,positive,,,,
1581327455077,4.0,Super cool small art gallery,The Journal Gallery,Art gallery,40.718426,-74.0043807,notmentioned,notmentioned,notmentioned,notmentioned,positive,notmentioned,notmentioned,positive,,,,
1600744520129,5.0,Cool place.,Unisphere,Tourist attraction||Historical landmark||Scenic spot||Sculpture,40.7463961,-73.8450629,notmentioned,notmentioned,notmentioned,notmentioned,positive,notmentioned,notmentioned,positive,,,,
1558803544011,5.0,very flexible,Atlantic Terminal Mall,Shopping mall,40.684568,-73.97697699999999,notmentioned,notmentioned,notmentioned,notmentioned,notmentioned,notmentioned,notmentioned,neutral,,,,
1485318269951,2.0,"It has little variety of premises, there is no bench to sit on, and it looks sloppy",Manhattan Mall,Shopping mall,40.749310699999995,-73.98929849999999,negative,negative,notmentioned,notmentioned,notmentioned,notmentioned,notmentioned,negative,,,,
1546841630740,5.0,Recommended for good view during winter as it is an enclosed area,One World Observatory,Tourist attraction,40.713006199999995,-74.013173,notmentioned,notmentioned,notmentioned,positive,notmentioned,notmentioned,notmentioned,neutral,,,,
1512939552945,3.0,Not the safest place to be because gangs and violence but the police works hard,Mott Haven Historic District,Tourist attraction,40.8107907,-73.9244088,negative,notmentioned,notmentioned,notmentioned,notmentioned,notmentioned,notmentioned,positive,,,,
1531822909983,5.0,"The Mecca of entertainment! If you visit New York and there is an event at MSG, I recommend you go, the view is excellent from any location and the venue itself is a testament to the history of New York City and the culture of entertainment (sports, wrestling, music). The food available is very varied and at reasonable prices.",Madison Square Garden,Arena||Event venue||Stadium||Tourist attraction,40.7505045,-73.9934387,notmentioned,notmentioned,positive,notmentioned,positive,positive,positive,notmentioned,,,,
1547930733169,5.0,Lovely and beautiful park. There's so many plants and flowers along the paths you can observe. They have a astonishing pond and it's truly relaxing and peaceful. They also have buildings were u can learn about nature. 10/10,Marine Park,Park||Baseball field||Bocce ball court||Cricket ground||Football Field||Handball court||Playground||Tennis court||Tourist attraction,40.6055157,-73.9348698,notmentioned,notmentioned,notmentioned,positive,positive,positive,notmentioned,positive,,,,
1594836930270,4.0,LIVED IN NEWYORK 1985 to -1990's,Washington Square Park,Park||Tourist attraction,40.7308838,-73.997332,notmentioned,notmentioned,notmentioned,notmentioned,notmentioned,notmentioned,notmentioned,neutral,,,,
1507062499771,5.0,"Had a picnic here a couple of weeks ago, the area was clean and seemed well kept.",Sunset Park,Park||Tourist attraction,40.6479517,-74.0037443,notmentioned,positive,notmentioned,positive,notmentioned,notmentioned,notmentioned,notmentioned,,,,
1562954348739,5.0,"Adriaan (the gallery owner) has such a great passion for art and the art community and this passion is tangible in the curation of this space. If you are a fan of colorful and expressive works, street art, and the work of both established and emerging artists, I highly recommend stopping by the gallery. They frequently put on new shows so there's always something exciting and refreshing going on.",Van Der Plas Gallery,Art gallery,40.7208742,-73.9887227,notmentioned,notmentioned,notmentioned,notmentioned,positive,positive,notmentioned,positive,,,,
1544667064180,4.0,Very good..,9/11 Tribute Museum,Museum||History museum||Local history museum||Non-profit organization||Tour operator||Tourist attraction,40.7079743,-74.0137432,notmentioned,notmentioned,notmentioned,notmentioned,notmentioned,notmentioned,notmentioned,positive,,,,
1527339658968,5.0,Always fun,Highland Park,Park||City park||Tourist attraction,40.688727799999995,-73.8862997,notmentioned,notmentioned,notmentioned,notmentioned,positive,notmentioned,notmentioned,positive,,,,
1545917789077,5.0,"Beautiful concert hall with first-class acoustics. Not only Classical but World Music, too. Comfortable seats.",Carnegie Hall,Concert hall||Live music venue||Tourist attraction,40.7651258,-73.97992359999999,notmentioned,notmentioned,notmentioned,notmentioned,positive,notmentioned,notmentioned,positive,,,,
1564114069868,5.0,A Great place for Families to see NYC.,High Line 30th St Elevator Access,Park,40.7524598,-74.0021101,notmentioned,notmentioned,notmentioned,notmentioned,positive,notmentioned,notmentioned,positive,,,,
1474132577015,5.0,"Love this place! Of course, Statue of Liberty, great food and ambiance, art in the park and lots of history.",The Battery,Park||Tourist attraction,40.703140999999995,-74.0159996,notmentioned,notmentioned,notmentioned,positive,positive,positive,notmentioned,positive,,,,
1530057389664,5.0,A perfect place.,Theodore Roosevelt Park,Park||Tourist attraction,40.781850899999995,-73.97476019999999,notmentioned,notmentioned,notmentioned,notmentioned,positive,notmentioned,notmentioned,positive,,,,
1577119655115,5.0,There's nothing better then being at Rockefeller Center during the Christmas season with the family!,Rockefeller Center Christmas Tree,Tourist attraction||Event venue||Historical landmark||Ice skating rink,40.7587105,-73.97858719999999,notmentioned,notmentioned,notmentioned,notmentioned,positive,notmentioned,notmentioned,positive,,,,
1523699599621,3.0,Cozy,Devoe Park,Park||Tourist attraction,40.8631422,-73.9062362,notmentioned,notmentioned,notmentioned,notmentioned,notmentioned,notmentioned,notmentioned,positive,,,,
1471191174835,5.0,A great park with great views of the river and the Statue of Liberty,The Battery,Park||Tourist attraction,40.703140999999995,-74.0159996,notmentioned,notmentioned,notmentioned,positive,notmentioned,notmentioned,notmentioned,notmentioned,,,,
1542256437141,5.0,Excellent museum. Plenty of history to learn and interactive exhibits for the kids. They have a rotating section of exhibits as well as a few main exhibits. The old subway cars are a highlight. Lots of fun to hop on board and point out the changes made over time. They are also filled with old advertisements that you are likely to joke about with friends.,New York Transit Museum,Museum||Gift shop||Non-profit organization||Rail museum||Tourist attraction,40.6903933,-73.98984,notmentioned,notmentioned,notmentioned,notmentioned,positive,positive,notmentioned,positive,,,,
1533020290154,3.0,Homeless people around.,The Atrium,Shopping mall,40.758061999999995,-73.9699129,negative,notmentioned,notmentioned,notmentioned,notmentioned,notmentioned,notmentioned,negative,,,,
1608471647959,5.0,Cool,Flushing Meadows Corona Park,Park||Tourist attraction,40.7400275,-73.8406953,notmentioned,notmentioned,notmentioned,notmentioned,positive,notmentioned,notmentioned,notmentioned,,,,
1576538260332,5.0,The prices are good around this area and I found me a very nice not so expensive Christmas tree,Broadway Plaza Outparcel,Shopping mall||Grocery store||Restaurant,40.877139799999995,-73.9056926,notmentioned,notmentioned,notmentioned,notmentioned,notmentioned,notmentioned,positive,notmentioned,,,,
1557878509230,5.0,Alot of great stores in one place!,The Shops at SkyView Center,Shopping mall||Restaurant,40.7572609,-73.8356116,notmentioned,notmentioned,positive,notmentioned,positive,notmentioned,notmentioned,positive,,,,
1557929717279,4.0,"I like this place. It's by some busy roads in Brooklyn but has a lot of trees and space to walk around. It's also a nice resting spot if you finished walking the Brooklyn Bridge or to gather your wits before you cross back in to Manhattan. I also like the monument in place to the families of WW2, those who died and those who mourned. It isn't easy to park here but has close access to the A train.",Cadman Plaza Park,Park||City park||Memorial park||Tourist attraction,40.6976723,-73.9906433,neutral,notmentioned,neutral,positive,positive,positive,notmentioned,positive,,,,
1583439447234,3.0,Welfare system,Apollo Theater,Performing arts theater||Entertainer||Live music venue||Performing arts group||Stage||Tourist attraction,40.810018,-73.950056,notmentioned,notmentioned,notmentioned,notmentioned,notmentioned,notmentioned,notmentioned,neutral,,,,
1577447935759,4.0,Mythical New York Place,St. Patrick's Cathedral,Cathedral||Catholic church||Tourist attraction,40.7586117,-73.9761953,notmentioned,notmentioned,notmentioned,notmentioned,notmentioned,neutral,notmentioned,notmentioned,,,,
1516817310273,5.0,All in one,Fresh Meadows Place,Shopping mall,40.739983599999995,-73.7859357,notmentioned,notmentioned,notmentioned,notmentioned,notmentioned,notmentioned,notmentioned,neutral,,,,
1534275038530,4.0,"I truly do enjoy this park. It is quiet and it is peaceful. It is pretty. It is a great place to come and just clear your head or just sit back and take a breather. Not much else to say other then they do a good job of maintaining it. I give it 4 stars instead of 5 because honestly the Restrooms are either never open, or when they are open they are not the most clean of facilities.",Silver Lake Park,Park||Tourist attraction,40.6273123,-74.0922851,positive,negative,notmentioned,positive,notmentioned,notmentioned,neutral,positive,,,,
1619640520380,5.0,"Wish I could give more than five stars - incredibly fast, kind, helpful, SO KNOWLEDGEABLE, and definitely a place I will go to again. Had to get an antique framed mirror wired for horizontal hanging and they went above and beyond to clean it up + update the hardware. I cannot express my appreciation enough.",Frames and Stretchers,Picture frame shop||Art gallery||Logistics service||Print shop,40.719238999999995,-73.98613999999999,notmentioned,notmentioned,notmentioned,notmentioned,notmentioned,positive,notmentioned,positive,,,,
1520823899305,5.0,Love green acres mall,Green Acres Mall,Shopping mall||Clothing store||Restaurant,40.6627613,-73.7196783,notmentioned,notmentioned,notmentioned,positive,positive,notmentioned,notmentioned,notmentioned,,,,
1576635626382,5.0,"Top architecture and glorious views. Next to the Hudson River, they make the atmosphere in autumn quite cold, however, that does not detract from the beauty of the impressive sculpture. Around it there are other attractions and shops, however, everything in it draws attention to the first.",Vessel,Tourist attraction,40.7538073,-74.0021537,notmentioned,notmentioned,notmentioned,positive,positive,positive,notmentioned,positive,,,,
1509064615546,5.0,"Friendly, good customer service, and the owner is nice. Good food and very clean!",Fatty's Cafe,American restaurant||Art gallery||Bar||Restaurant,40.7636043,-73.9092153,notmentioned,positive,notmentioned,notmentioned,positive,notmentioned,notmentioned,positive,,,,
1530192843287,5.0,Photographer paradise spot and modern marvel artistic and spaceship all the one. Must visit place in NYC,World Trade Center,Subway station,40.7126452,-74.00989799999999,notmentioned,notmentioned,notmentioned,notmentioned,positive,notmentioned,notmentioned,positive,,,,
1621098259781,5.0,"I had an amazing time here! Super fun, & customer service was AWESOME. ASK FOR Cynthia!!!!",Bury the Hatchet Axe Throwing Brooklyn,Recreation center||Adventure sports||Adventure sports center||Amusement center||Corporate entertainment service||Event venue||Tourist attraction,40.7284115,-73.9591634,notmentioned,notmentioned,notmentioned,notmentioned,positive,notmentioned,notmentioned,positive,,,,
1468819282203,3.0,Stay safe people.,Pelham Bay Park,Park||Athletic park||Basketball court||Dog park||Nature preserve||Playground||Soccer field||Tourist attraction,40.867014399999995,-73.81006339999999,negative,notmentioned,notmentioned,notmentioned,notmentioned,notmentioned,notmentioned,notmentioned,,,,
1558902099191,5.0,"Very nice place, but it has become a little dangerous to be with the children",St. Nicholas Playground South,Park,40.8110414,-73.9472792,negative,notmentioned,notmentioned,positive,notmentioned,notmentioned,notmentioned,positive,,,,
1536603786116,2.0,Visiting this building was odd for me. The old exchange has moved to Chicago. Even the cocoa exchange building is no longer active.,Corn Exchange Building,Historical landmark,40.805387,-73.9392601,notmentioned,notmentioned,notmentioned,notmentioned,notmentioned,negative,notmentioned,negative,,,,
1560094884188,5.0,It's smaller than the botanical garden in the Bronx but very nice and a good place to relax. Free Sundays 9-11 and Wed 4-6,Queens Botanical Garden,Botanical garden||Tourist attraction,40.7504225,-73.8301548,notmentioned,notmentioned,notmentioned,positive,positive,notmentioned,neutral,neutral,,,,
1534795736901,4.0,Good mall to go driving. Many shopping choices.,Queens Center,Shopping mall||Clothing store||Restaurant,40.734483399999995,-73.8696793,notmentioned,notmentioned,positive,notmentioned,positive,notmentioned,notmentioned,notmentioned,,,,
1567210072256,4.0,"Very good place to relax and enjoy. Easy access, available bathrooms and drinks and food sector. !",Rockaway Beach Club LLC,Park||Public beach||Tourist attraction,40.582911,-73.817649,notmentioned,notmentioned,positive,positive,positive,notmentioned,notmentioned,positive,,,,
1568235784600,5.0,Best shopping mall in the bronx....,Bay Plaza,Shopping mall,40.863953599999995,-73.8273421,notmentioned,notmentioned,notmentioned,notmentioned,positive,notmentioned,notmentioned,positive,,,,
1538258313087,5.0,Awesome day,Bronx Zoo,Zoo||Tourist attraction,40.8505949,-73.8769982,notmentioned,notmentioned,notmentioned,notmentioned,positive,notmentioned,notmentioned,positive,,,,
1479190472583,4.0,"Nice playgrounds, separate for babies and toddlers",Vanderbilt Playground,Playground||Tourist attraction,40.6554457,-73.9731785,notmentioned,notmentioned,notmentioned,positive,positive,notmentioned,notmentioned,notmentioned,,,,
1540836104742,5.0,Very enlightening,Flushing Meadows Corona Park,Park||Tourist attraction,40.7400275,-73.8406953,notmentioned,notmentioned,notmentioned,notmentioned,notmentioned,notmentioned,notmentioned,positive,,,,
1564817950755,5.0,It is very nice there.,Sheep Meadow,Park||Tourist attraction,40.7717813,-73.9748418,notmentioned,notmentioned,notmentioned,positive,notmentioned,notmentioned,notmentioned,notmentioned,,,,
1608657570133,5.0,Its lovely for going for walks with friends and family. When its snowy please make sure your doggies wear shoes bc the salt hurts their feet!,Bartel-Pritchard Square,Park||Tourist attraction,40.660989,-73.979877,notmentioned,notmentioned,notmentioned,positive,notmentioned,notmentioned,notmentioned,positive,,,,
1605751726180,5.0,Very peaceful,Fowler Square,Park,40.6869537,-73.9757485,notmentioned,notmentioned,notmentioned,positive,notmentioned,notmentioned,notmentioned,positive,,,,
1575215440949,4.0,Cozy little park,Washington Square Park,Park||Tourist attraction,40.7308838,-73.997332,notmentioned,notmentioned,notmentioned,positive,notmentioned,notmentioned,notmentioned,notmentioned,,,,
1615126333982,1.0,Sells irregular size clothing and defective Wallets and bags.,Macy's Backstage Plaza,Shopping mall,40.5840834,-73.9469757,notmentioned,negative,notmentioned,notmentioned,notmentioned,notmentioned,negative,negative,,,,
1537663965625,1.0,"Worst day ever , horrible customer service . I would never recommend this location to anyone the supervisor was the most unprofessional person .",Laser Bounce - Family Fun Center,Amusement center||Amusement park||Children's amusement center||Children's party service||Laser tag center||Playground||Video arcade,40.7081224,-73.86805489999999,negative,notmentioned,notmentioned,notmentioned,notmentioned,notmentioned,notmentioned,negative,,,,
1300751657942,4.0,Love the exhibits on the spiral; the building itself is the highlight of the museum tour usually.,Solomon R. Guggenheim Museum,Modern art museum||Art museum||Museum||Tourist attraction,40.7829796,-73.9589706,notmentioned,notmentioned,notmentioned,notmentioned,notmentioned,positive,notmentioned,notmentioned,,,,
1518887775218,4.0,Good array of stores and restaurants. The normal Bronx and Harlem crowd. Friendly but loud people...lol HAVE fun,Concourse Plaza,Shopping mall,40.8252165,-73.9202784,notmentioned,notmentioned,notmentioned,notmentioned,positive,notmentioned,notmentioned,neutral,,,,
1412459226555,5.0,Best fresh vegetables and fruits,Essex Market,Market||Produce market||Restaurant||Tourist attraction,40.7180004,-73.98819,notmentioned,notmentioned,notmentioned,notmentioned,notmentioned,notmentioned,positive,notmentioned,,,,
1600629765047,5.0,Excellent place.,Vessel,Tourist attraction,40.7538073,-74.0021537,notmentioned,notmentioned,notmentioned,notmentioned,positive,notmentioned,notmentioned,positive,,,,
1597019762842,5.0,Beautiful scenery,Staten Island Industrial Park,Park||Tourist attraction,40.6123603,-74.172438,notmentioned,notmentioned,notmentioned,positive,notmentioned,notmentioned,notmentioned,notmentioned,,,,
1556157893665,4.0,Good park. Lights are tough and patch work turf repair is shady.,DeWitt Clinton Park,Park,40.7680424,-73.9942296,positive,notmentioned,notmentioned,positive,notmentioned,notmentioned,notmentioned,negative,,,,
1563287561878,5.0,We had an amazing and beautiful experience. We learned so much about Central Parks history and the sights were beautiful. We enjoyed talking with the stagecoach driver and his assistant. They made our day amazing. My boyfriend proposed and it couldn't have been better.,NYC Horse Carriage Rides™ EST.1979,Carriage ride service||Sightseeing tour agency||Tour operator||Tourist attraction,40.7671572,-73.9788542,notmentioned,notmentioned,notmentioned,positive,positive,positive,notmentioned,positive,,,,
1609409342280,5.0,Amazing church and very clean as well. Fell so blessed and great when I am siting here alone.,Plymouth Church,Church||Tourist attraction,40.6991711,-73.99314559999999,notmentioned,positive,notmentioned,notmentioned,notmentioned,positive,notmentioned,positive,,,,
1549302745620,5.0,Beautiful statue of hero!,Balto Statue,Tourist attraction||Historical landmark||Scenic spot||Sculpture,40.7699742,-73.9710197,notmentioned,notmentioned,notmentioned,notmentioned,notmentioned,positive,notmentioned,positive,,,,
1577899619526,2.0,Okay lots of flea market stuff what I dud enjoy seeing and will see more of is New Artist with there original designs in jewelry etc.,Grand Bazaar NYC,Flea market||Antique store||Artist||Festival||Food court||Handicraft fair||Tourist attraction||Vintage clothing store,40.780933,-73.977723,notmentioned,notmentioned,notmentioned,notmentioned,positive,notmentioned,notmentioned,notmentioned,,,,
1561249340423,1.0,No elevator or escalator and this is an aging neighborhood so it gets 1 star.,96 Street Station,Subway station,40.7858701,-73.95093469999999,negative,notmentioned,negative,notmentioned,notmentioned,notmentioned,notmentioned,notmentioned,,,,
1475449982650,5.0,Morphous,Union Square Park,Park||City park||Tourist attraction,40.735823499999995,-73.9905215,notmentioned,notmentioned,notmentioned,notmentioned,notmentioned,notmentioned,notmentioned,notmentioned,,,,
1564356654244,5.0,Great place to purchase Japanese products! It’s a small but has variety!,Industry City,Business park||Office space rental agency||Retail space rental agency||Tourist attraction,40.6558874,-74.0072546,notmentioned,notmentioned,notmentioned,notmentioned,positive,notmentioned,positive,positive,,,,
1619918870865,5.0,Expensive. I think is getting more n more expensive.,Deno's Wonder Wheel Amusement Park,Amusement park||Tourist attraction,40.573330899999995,-73.9791552,notmentioned,notmentioned,notmentioned,notmentioned,notmentioned,notmentioned,negative,notmentioned,,,,
1581535069398,5.0,I love this place. This is a good place to do jogging during spring summer and autumn ... Some others sport..,St. James Park,Park||Basketball court||Dog park||Handball court||Playground||Soccer field||Tennis court||Tourist attraction,40.865023699999995,-73.89777269999999,notmentioned,notmentioned,notmentioned,positive,positive,notmentioned,notmentioned,positive,,,,
1572281110391,4.0,Reall like Trader Joe's,90 - 30 Metropolitan Avenue,Shopping mall||Grocery store||Restaurant,40.710916,-73.8582626,notmentioned,notmentioned,notmentioned,notmentioned,positive,notmentioned,notmentioned,notmentioned,,,,
1469048288431,5.0,You can presents of God and the holy spirit in you great service very amazing,The Brooklyn Tabernacle,Non-denominational church||Church||Tourist attraction,40.690787,-73.987409,notmentioned,notmentioned,notmentioned,notmentioned,notmentioned,positive,notmentioned,positive,,,,
1576712970447,5.0,Truly a place of remarkable beauty.,St. Patrick's Cathedral,Cathedral||Catholic church||Tourist attraction,40.7586117,-73.9761953,notmentioned,notmentioned,notmentioned,positive,notmentioned,notmentioned,notmentioned,notmentioned,,,,
1473971840074,5.0,Nice zoo.,Bronx Zoo,Zoo||Tourist attraction,40.8505949,-73.8769982,notmentioned,notmentioned,notmentioned,positive,positive,notmentioned,notmentioned,notmentioned,,,,
1600375126469,4.0,Food court is still not allowing to sit but you can buy food. Green acres mall food court is open and you can sit. I hope this mall lets you sit soon.,Queens Center,Shopping mall||Clothing store||Restaurant,40.734483399999995,-73.8696793,notmentioned,notmentioned,notmentioned,notmentioned,neutral,notmentioned,notmentioned,neutral,,,,
1550681051787,5.0,It is a great place for those who really love fine arts. Quiet. Cozy. Inviting to go over and over again.,The Bronx Museum of the Arts,Art museum||Performing arts theater||Tourist attraction,40.8311761,-73.91970239999999,notmentioned,notmentioned,notmentioned,notmentioned,positive,positive,notmentioned,positive,,,,
1571307085190,5.0,Prettiest in Bilbao.,Solomon R. Guggenheim Museum,Modern art museum||Art museum||Museum||Tourist attraction,40.7829796,-73.9589706,notmentioned,notmentioned,notmentioned,positive,notmentioned,notmentioned,notmentioned,notmentioned,,,,
1515566383112,5.0,"Amazing shopping center, food and seating is top notch and the view looking outside from the front and back is breathtaking. Would definitely visit again.",Brookfield Place,Shopping mall||Tourist attraction,40.712716799999995,-74.01528239999999,notmentioned,notmentioned,positive,positive,positive,notmentioned,notmentioned,positive,,,,
1599930231418,4.0,"It a good place to shop,in this area",Baychester Shopping Plaza,Shopping mall,40.889488,-73.8434111,notmentioned,notmentioned,notmentioned,notmentioned,positive,notmentioned,notmentioned,positive,,,,
1540365040993,5.0,"Great for family, or dates. Really romantic too The Brooklyn museum itself is a fantastic structure, DO BE WARNED EVERYTHING SHUTS DOWN 15 MINUTES before museum closes. They literally usher everyone out by 540. It's not as simple as the met breugher museum but great never the less. This is also a good solo trip. I went to see soul of a nation, check it out",Brooklyn Museum,Art museum||Museum||Tourist attraction,40.6712062,-73.9636306,notmentioned,notmentioned,neutral,notmentioned,positive,positive,notmentioned,positive,,,,
1590970542152,4.0,Good place very clean,Travers Park,Park||Tourist attraction,40.7539534,-73.88936199999999,notmentioned,positive,notmentioned,notmentioned,notmentioned,notmentioned,notmentioned,positive,,,,
1571229906785,5.0,There is really a lot of cool things to see in this area. Some really cool pictures and beautiful architecture. You get to see where a lot of movies are made and get to touch the bull! They have some good eating places around. This will be about an hour experience to see it all. So you can plan this with other things in the area to do.,New York Stock Exchange,Stock broker||Financial institution||Tourist attraction,40.706877,-74.0112654,notmentioned,notmentioned,notmentioned,notmentioned,positive,positive,notmentioned,positive,,,,
1545433273689,5.0,"Park there daily. No issues, shuttle and B are great.",Aardwolf Parking,Parking lot,40.6633682,-73.8140109,notmentioned,notmentioned,positive,positive,notmentioned,notmentioned,notmentioned,positive,,,,
1555178930109,3.0,Ok...not very impressive,International Center of Photography Museum,Museum||Art gallery||Art museum,40.7179913,-73.9886867,notmentioned,notmentioned,notmentioned,notmentioned,notmentioned,notmentioned,notmentioned,negative,,,,
1574765003079,5.0,WOW... fortified building with a lot gold! That’s what every New Yorker said!,Federal Reserve Bank of New York,Corporate office||Tourist attraction,40.7083663,-74.008653,notmentioned,notmentioned,positive,notmentioned,notmentioned,positive,notmentioned,positive,,,,
1545844158126,5.0,"Great experience, audio tour was great as you go at you're own pace.",Statue of Liberty National Monument,Historical landmark||Monument||National park||Tourist attraction,40.6892494,-74.04450039999999,notmentioned,notmentioned,notmentioned,notmentioned,positive,notmentioned,notmentioned,positive,,,,
1490472937184,5.0,Very nice memorial site.,One World Trade Center,Business center||Tourist attraction,40.7127431,-74.0133795,notmentioned,notmentioned,notmentioned,notmentioned,notmentioned,positive,notmentioned,notmentioned,,,,
1521376075947,3.0,"This place is what it is. A small to medium sized mall that is anchored by a Target. One of the best selling points is the location, on top of a transportation hub. Many NYC subway lines and the Long Island railroad is right beneath you as you shop.",Atlantic Terminal Mall,Shopping mall,40.684568,-73.97697699999999,notmentioned,notmentioned,positive,notmentioned,notmentioned,notmentioned,notmentioned,positive,,,,
1563650794329,3.0,Convenient and an easy walk from Times Square,Times Sq - 42 St,Subway station,40.7558611,-73.987061,notmentioned,notmentioned,positive,notmentioned,notmentioned,notmentioned,notmentioned,notmentioned,,,,
1532262417421,5.0,You can not lose this,St. Patrick's Cathedral,Cathedral||Catholic church||Tourist attraction,40.7586117,-73.9761953,notmentioned,notmentioned,notmentioned,notmentioned,positive,notmentioned,notmentioned,notmentioned,,,,
1598295196975,5.0,I like,Sofive Brooklyn,Soccer field||Recreation center||Soccer club||Soccer practice||Sports bar||Sports complex,40.6719146,-73.8984085,notmentioned,notmentioned,notmentioned,notmentioned,notmentioned,notmentioned,notmentioned,positive,,,,
1617325297136,5.0,OOPS,Atlantic Terminal Mall,Shopping mall,40.684568,-73.97697699999999,notmentioned,notmentioned,notmentioned,notmentioned,notmentioned,notmentioned,notmentioned,neutral,,,,
1517420608929,5.0,Nice outdoor shopping center. Chain stores mixed with private owned. Nice area. Big parking lot.,Glen Oaks Shopping Center,Shopping mall,40.7460206,-73.71555769999999,notmentioned,notmentioned,positive,positive,positive,notmentioned,notmentioned,positive,,,,
1497477975717,5.0,Great park,Theodore Roosevelt Park,Park||Tourist attraction,40.781850899999995,-73.97476019999999,notmentioned,notmentioned,notmentioned,positive,notmentioned,notmentioned,notmentioned,notmentioned,,,,
1536413298398,1.0,"Beautiful zoo, but realize that there is a free entry day on Wednesday!! If you present then with a purchased ticket on Wednesday, they will use the fees for their research budget, but they didn't explain that till I talked to management! If they were honest about this practice, I'd give them 5 starts",Bronx Zoo,Zoo||Tourist attraction,40.8505949,-73.8769982,positive,notmentioned,notmentioned,positive,positive,notmentioned,negative,negative,,,,
1590888983060,5.0,Nice place and quiet,Prospect Park,Park||Tourist attraction,40.6602037,-73.9689558,notmentioned,notmentioned,notmentioned,positive,notmentioned,notmentioned,notmentioned,positive,,,,
1563103431109,5.0,The best!!!,Forest Promenade Shopping Plaza,Shopping mall,40.624083,-74.1480584,notmentioned,notmentioned,notmentioned,notmentioned,notmentioned,notmentioned,notmentioned,positive,,,,
1493833567790,5.0,Love Fun Out In The Sun... Ppl Fishing... Parking... Seating.... Grills And Tables... Port A Potties...,Canarsie Park,Park||Tourist attraction,40.6277696,-73.89508649999999,notmentioned,notmentioned,positive,positive,positive,notmentioned,notmentioned,positive,,,,
1565659484016,4.0,My 10 month old enjoyed his visit.,Brooklyn Children's Museum,Children's museum||Museum||Non-profit organization||Tourist attraction,40.674461099999995,-73.94398629999999,notmentioned,notmentioned,notmentioned,notmentioned,positive,notmentioned,notmentioned,positive,,,,
1487007628562,5.0,Large selection,Peartree Square Shopping Plaza,Shopping mall,40.8806022,-73.8248437,notmentioned,notmentioned,notmentioned,notmentioned,notmentioned,notmentioned,positive,notmentioned,,,,
1513733799618,2.0,"Modern art is not my thing however I liked the structure of the building a lot. Coffee was way too expensive and it wasn't impressive. If you like modern art, go see this place. It's not for people who like more classic art.",The Museum of Modern Art,Modern art museum||Art museum||Museum||Tourist attraction,40.7614327,-73.97762159999999,notmentioned,notmentioned,positive,notmentioned,notmentioned,positive,negative,neutral,,,,
1607842551580,5.0,Manhattan view at night is amazing. Very peaceful spot for family and friends,Pepsi Cola Sign,Tourist attraction,40.7475749,-73.95750749999999,notmentioned,notmentioned,notmentioned,positive,positive,notmentioned,notmentioned,positive,,,,
1447952170643,5.0,Massive and beautiful.,Grand Central Terminal,Train station,40.7527262,-73.9772294,notmentioned,notmentioned,notmentioned,positive,notmentioned,notmentioned,notmentioned,notmentioned,,,,
1581953077878,5.0,Very easy to get too,Queensboro Plaza,Subway station,40.750584,-73.940201,notmentioned,notmentioned,positive,notmentioned,notmentioned,notmentioned,notmentioned,notmentioned,,,,
1529385568880,5.0,very spacious and the fountains were great,Unisphere,Tourist attraction||Historical landmark||Scenic spot||Sculpture,40.7463961,-73.8450629,notmentioned,notmentioned,positive,notmentioned,positive,notmentioned,notmentioned,notmentioned,,,,
1560870550143,5.0,"really cool experience :-) We had a lot of fun on ""The Ride""",The Ride NYC,Tourist attraction||Bus tour agency||Entertainment agency||Performing arts theater||Sightseeing tour agency,40.757209499999995,-73.98933099999999,notmentioned,notmentioned,notmentioned,notmentioned,positive,notmentioned,notmentioned,positive,,,,
1504008319460,5.0,"Beautiful memorial. As of August 2017 its been reopened after some renovation. If you take the picture just right, you would think you are in some field in Ireland and not lower Manhattan.",Irish Hunger Memorial,Memorial park||Tourist attraction,40.7150615,-74.0163681,notmentioned,notmentioned,notmentioned,positive,notmentioned,positive,notmentioned,positive,,,,
1566857934249,5.0,My husbands and I favorite place to visit everytime we come to Manhattan. We love taking the Tramway to the Island and just enjoying the beautiful views of the Manhattan skyline.,Franklin D. Roosevelt Four Freedoms State Park,Park||Tourist attraction,40.7506105,-73.96052399999999,notmentioned,notmentioned,positive,positive,positive,notmentioned,notmentioned,positive,,,,
1549215830535,1.0,"Believe it or not !, but I found Ripley's Believe or not - that a lot of people find a nickel hunt - better, or less bad, than this attraction! It's not up to National Geographic. It is a simple junction of screens to display images of the ocean floor, as well as a silly path with carnival imitation of some marine plants.",National Geographic Encounter,Tourist attraction||Event venue,40.757732999999995,-73.98715969999999,notmentioned,notmentioned,notmentioned,negative,negative,notmentioned,notmentioned,negative,,,,
1572122435083,4.0,Too small to fit all the Bernis Sanders supporters.,Queensbridge Park,Park,40.7566667,-73.9486111,notmentioned,notmentioned,notmentioned,notmentioned,negative,notmentioned,notmentioned,negative,,,,
1551453558094,4.0,"Good location and easy access, R and M train and buses available but they need more stores like Zara. Abercrombie etcetcbut still good for emergencies.",Rego Center,Shopping mall,40.7332336,-73.86381639999999,notmentioned,notmentioned,positive,notmentioned,notmentioned,notmentioned,notmentioned,neutral,,,,
1579567404161,1.0,Lane was cracked ball kept bouncing needs repair,Woodmere Lanes,Bowling alley||Sports complex,40.630120999999995,-73.708524,negative,notmentioned,negative,notmentioned,notmentioned,notmentioned,notmentioned,notmentioned,,,,
1580259554447,5.0,"Great art on the ceiling of the lobby, and awesome views on top.",The Woolworth Building,Historical landmark||Historical place||Tourist attraction,40.71243,-74.0083547,notmentioned,notmentioned,notmentioned,positive,positive,positive,notmentioned,notmentioned,,,,
1530423404733,5.0,GOOD PRETTY AND CHEAP,Green Acres Mall,Shopping mall||Clothing store||Restaurant,40.6627613,-73.7196783,notmentioned,notmentioned,notmentioned,notmentioned,notmentioned,notmentioned,positive,notmentioned,,,,
1498564997195,4.0,Great view and proximity to attractions,The Battery,Park||Tourist attraction,40.703140999999995,-74.0159996,notmentioned,notmentioned,notmentioned,positive,positive,notmentioned,notmentioned,positive,,,,
1551548635799,4.0,Nice place to walk around and explore...food is also good.,Soho mall,Shopping mall,40.7201939,-73.99683379999999,notmentioned,notmentioned,notmentioned,positive,positive,notmentioned,notmentioned,positive,,,,
1576186409768,5.0,Beautiful sunset there.,Marsha P. Johnson State Park,State park||City park||Cultural landmark||Park||Tourist attraction,40.7214167,-73.96203059999999,notmentioned,notmentioned,notmentioned,positive,notmentioned,notmentioned,notmentioned,notmentioned,,,,
1560227219075,5.0,Very nice venue!,Angel Orensanz Foundation,Reform synagogue||Tourist attraction,40.7211655,-73.9857196,notmentioned,notmentioned,notmentioned,notmentioned,positive,notmentioned,notmentioned,positive,,,,
1584231996513,5.0,The slide its good fun for all ages,Rosewood Playground,Playground,40.8730842,-73.8709027,notmentioned,notmentioned,notmentioned,notmentioned,positive,notmentioned,notmentioned,notmentioned,,,,
1562081393963,5.0,"Really nice, fun and must see place in Central park. Especially in weekend.",Bethesda Terrace,Tourist attraction||Historical landmark||Scenic spot,40.7739489,-73.9709661,notmentioned,notmentioned,notmentioned,positive,positive,notmentioned,notmentioned,positive,,,,
1538065984282,5.0,Lots of different foods and stuff great atmosphere. Then did sky walk.,Chelsea Market,Shopping mall,40.7424509,-74.0059581,notmentioned,notmentioned,notmentioned,notmentioned,positive,notmentioned,notmentioned,positive,,,,
1552572495251,5.0,Cold as heck,Jamaica Bus Terminal,Shopping mall,40.7076319,-73.7957718,notmentioned,notmentioned,notmentioned,negative,notmentioned,notmentioned,notmentioned,notmentioned,,,,
1533298598294,4.0,Ok...service A Plus,River Plaza,Shopping mall,40.8730677,-73.9083538,notmentioned,notmentioned,notmentioned,notmentioned,notmentioned,notmentioned,positive,notmentioned,,,,
1594250233178,5.0,"So we have social distancing, face mask n early closing stores..not cool",Green Acres Mall,Shopping mall||Clothing store||Restaurant,40.6627613,-73.7196783,negative,notmentioned,notmentioned,notmentioned,notmentioned,notmentioned,notmentioned,negative,,,,
1479844415852,4.0,A lot of stores to choose between all different types of items have to really look around to get best prices can be warm inside and a lot of times can be very crowded,Queens Center,Shopping mall||Clothing store||Restaurant,40.734483399999995,-73.8696793,notmentioned,notmentioned,neutral,notmentioned,notmentioned,notmentioned,positive,negative,,,,
1617296641837,4.0,"I always like Atlantic center, but there damn parking is getting a little ridiculous.",Atlantic Center,Shopping mall||Parking garage,40.683706,-73.97502,notmentioned,notmentioned,negative,notmentioned,positive,notmentioned,notmentioned,notmentioned,,,,
1579036273154,4.0,"Since January 2020, donations have changed from 6 pm to 8 pm on Tuesday. Closed at 6 o'clock on Saturday.",Cooper Hewitt Smithsonian Design Museum,Museum||Art museum||Historical landmark||Tourist attraction,40.7843958,-73.9578732,notmentioned,notmentioned,neutral,notmentioned,notmentioned,notmentioned,neutral,neutral,,,,
1565437854857,2.0,It was okay,Jamaica Colosseum Mall,Shopping mall,40.7075,-73.7963889,notmentioned,notmentioned,notmentioned,notmentioned,notmentioned,notmentioned,notmentioned,neutral,,,,
1531080271726,3.0,Eh..,Green Central Knoll,Playground||Park||Tourist attraction,40.7018454,-73.9332266,notmentioned,notmentioned,notmentioned,notmentioned,notmentioned,notmentioned,notmentioned,neutral,,,,
1471018404449,4.0,it was ok,Riverbank State Park,State park||Park||Tourist attraction,40.8264236,-73.9559555,notmentioned,notmentioned,notmentioned,notmentioned,notmentioned,notmentioned,notmentioned,neutral,,,,
1534267998747,5.0,An unknown but magical place!,The Morgan Library & Museum,Art museum||Museum||Tourist attraction,40.7492258,-73.9813971,notmentioned,notmentioned,notmentioned,positive,positive,notmentioned,notmentioned,positive,,,,
1493127611207,5.0,Very clean. Very spacious. Beautiful structure designed.,Bay Plaza,Shopping mall,40.863953599999995,-73.8273421,notmentioned,positive,notmentioned,positive,notmentioned,positive,notmentioned,positive,,,,
1569706889694,5.0,I always come here to go skateboarding and make new friends,Washington Square Park,Park||Tourist attraction,40.7308838,-73.997332,notmentioned,notmentioned,notmentioned,notmentioned,positive,notmentioned,notmentioned,positive,,,,
1556405247441,5.0,Corrine was amazing. Can't wait to get in,Amazing Escape Room Staten Island,Escape room center||Adventure sports||Adventure sports center||Amusement center||Corporate entertainment service||Event venue||Recreation center||Tourist attraction,40.6091777,-74.1483562,notmentioned,notmentioned,notmentioned,notmentioned,positive,notmentioned,notmentioned,positive,,,,
1624226060736,2.0,It's only a train station.,182nd-183rd Sts.,Subway station,40.8560934,-73.90102949999999,notmentioned,notmentioned,neutral,notmentioned,notmentioned,notmentioned,notmentioned,neutral,,,,
1497454370118,5.0,wow best place to find all types of food love the tacos,Chelsea Market,Shopping mall,40.7424509,-74.0059581,notmentioned,notmentioned,notmentioned,notmentioned,positive,notmentioned,notmentioned,positive,,,,
1541300255187,5.0,Wonderful,St. Patrick's Cathedral,Cathedral||Catholic church||Tourist attraction,40.7586117,-73.9761953,notmentioned,notmentioned,notmentioned,notmentioned,notmentioned,notmentioned,notmentioned,positive,,,,
1572184994023,4.0,Meh,Canal Street Market,Shopping mall||Food court||Tourist attraction,40.719019,-74.00081899999999,notmentioned,notmentioned,notmentioned,notmentioned,notmentioned,notmentioned,notmentioned,neutral,,,,
1488463382254,5.0,"This is a great place for everyone and anyone to go. It's only open till about between 5 and 7 p.m., opens at 10 a.m. but it's only open between the spring and the fall. In the winter it's only open for Christmas for the train show",Bronx Zoo,Zoo||Tourist attraction,40.8505949,-73.8769982,notmentioned,notmentioned,neutral,notmentioned,positive,notmentioned,notmentioned,positive,,,,
1549499729480,5.0,"Excellent mall. Great shopping options, however needs more maps showing your location and the location of stores",Bay Plaza,Shopping mall,40.863953599999995,-73.8273421,notmentioned,notmentioned,neutral,notmentioned,positive,notmentioned,notmentioned,neutral,,,,
1581904190000,5.0,"Great experience, definitely coming back. Ask for Corinne, she is the hidden mvp!!!",Amazing Escape Room Staten Island,Escape room center||Adventure sports||Adventure sports center||Amusement center||Corporate entertainment service||Event venue||Recreation center||Tourist attraction,40.6091777,-74.1483562,notmentioned,notmentioned,notmentioned,notmentioned,positive,notmentioned,notmentioned,positive,,,,
1556815858066,5.0,Great park to walk and take your dog.,St. Nicholas Park,Park||Tourist attraction,40.8174689,-73.94874759999999,notmentioned,notmentioned,notmentioned,positive,notmentioned,notmentioned,notmentioned,positive,,,,
1603914283520,5.0,I voted early within 5 minutes I was out of there,Martinez Playground,Playground||Skateboard park,40.709099599999995,-73.9444694,notmentioned,notmentioned,notmentioned,notmentioned,notmentioned,notmentioned,notmentioned,neutral,,,,
1482585032720,5.0,Very nice and clean friendly neighborhood park.,Juniper Valley Park,Park||City park||Tourist attraction,40.720496999999995,-73.8796412,notmentioned,positive,notmentioned,positive,notmentioned,notmentioned,notmentioned,positive,,,,
1563052478561,5.0,Lovely,St. Patrick's Cathedral,Cathedral||Catholic church||Tourist attraction,40.7586117,-73.9761953,notmentioned,notmentioned,notmentioned,notmentioned,notmentioned,notmentioned,notmentioned,positive,,,,
1584557297399,4.0,Great exhibits all year long!,Cooper Hewitt Smithsonian Design Museum,Museum||Art museum||Historical landmark||Tourist attraction,40.7843958,-73.9578732,notmentioned,notmentioned,notmentioned,notmentioned,positive,positive,notmentioned,notmentioned,,,,
1601222432750,5.0,Nice building. It is a beautiful structure worth going and taking pictures.,Vessel,Tourist attraction,40.7538073,-74.0021537,notmentioned,notmentioned,positive,notmentioned,notmentioned,positive,notmentioned,notmentioned,,,,
1558692638073,5.0,Excellent place to shop and hangout,Kings Plaza Shopping Center,Shopping mall||Clothing store||Restaurant,40.6101191,-73.920052,notmentioned,notmentioned,notmentioned,notmentioned,positive,notmentioned,notmentioned,positive,,,,
1538124358191,5.0,"Is a great outdoors place to visit if you dont have anything else to do but want to be out of the city parks. Nice for picnic to spend with family and friends. It's safe, but Cannot bring alcohol to the island if you are taking the ferry. Ferry leaves every half hour. There are restaurants, museums and plenty of open areas to ride bikes, rollerblading and any other outdoor activities of preference.",Governors Island National Monument,Monument||Historical landmark||Tourist attraction,40.6919879,-74.01599499999999,positive,notmentioned,neutral,positive,positive,positive,notmentioned,positive,,,,
1559656971609,4.0,Chinese souvenir shops !!!,Soho mall,Shopping mall,40.7201939,-73.99683379999999,notmentioned,notmentioned,notmentioned,notmentioned,positive,notmentioned,notmentioned,notmentioned,,,,
1604426624642,5.0,Who doesn't like the Bronx Zoo?? This is a must visit. Few times a year. Awesome on the holidays. Halloween was awesome but can't wait for Christmas light show!!!,Bronx Zoo,Zoo||Tourist attraction,40.8505949,-73.8769982,notmentioned,notmentioned,notmentioned,positive,positive,notmentioned,notmentioned,positive,,,,
1511385403692,5.0,Yayoi Kusama Festival of Life,David Zwirner,Art gallery||Tourist attraction,40.745866,-74.006985,notmentioned,notmentioned,notmentioned,notmentioned,positive,positive,notmentioned,notmentioned,,,,
1611705876690,4.0,"Good place to shop. Target, beat buy and saw. Red lobster also inside.",Queens Place Mall,Shopping mall,40.7355974,-73.8745378,notmentioned,notmentioned,positive,notmentioned,positive,notmentioned,positive,notmentioned,,,,
1571379557290,4.0,Another jewel of central parck,Belvedere Castle,Castle||Historical landmark||Scenic spot||Tourist attraction,40.7794302,-73.9690677,notmentioned,notmentioned,notmentioned,positive,notmentioned,notmentioned,notmentioned,notmentioned,,,,
1542237167173,1.0,"The staff up the tower have some of the worst customer service I have ever experienced. I question how these people were given employment in such an iconic tourist attraction of such significance. Management need to look at how their staff interact with paying customers, and implement training or performance management accordingly.",One World Observatory,Tourist attraction,40.713006199999995,-74.013173,notmentioned,notmentioned,notmentioned,notmentioned,notmentioned,notmentioned,notmentioned,negative,,,,
1536931722868,5.0,Great time myself and wifey had on our 4th weeding anniversary. Thank you,One World Observatory,Tourist attraction,40.713006199999995,-74.013173,notmentioned,notmentioned,notmentioned,notmentioned,positive,notmentioned,notmentioned,positive,,,,
1581954735926,4.0,Recently renovated St. James Park. Extremely close to Fordham Avenue. It runs across Jerome Avenue. This park offers different types of classes daily. Check out the schedule.,St. James Park,Park||Basketball court||Dog park||Handball court||Playground||Soccer field||Tennis court||Tourist attraction,40.865023699999995,-73.89777269999999,notmentioned,notmentioned,positive,positive,positive,notmentioned,notmentioned,notmentioned,,,,
1512962202478,5.0,Very fun and festive!,Union Square Park,Park||City park||Tourist attraction,40.735823499999995,-73.9905215,notmentioned,notmentioned,notmentioned,notmentioned,positive,notmentioned,notmentioned,positive,,,,
1530377496518,5.0,It's lit,MoMA PS1,Modern art museum||Art center||Tourist attraction,40.7454944,-73.94735279999999,notmentioned,notmentioned,notmentioned,notmentioned,positive,notmentioned,notmentioned,positive,,,,
1559959863908,4.0,"Nice park, I was going there to cee that globe. Wery cute place",Flushing Meadows Corona Park,Park||Tourist attraction,40.7400275,-73.8406953,notmentioned,notmentioned,notmentioned,positive,positive,notmentioned,notmentioned,positive,,,,
1551032126723,1.0,Musty,Queens Place Mall,Shopping mall,40.7355974,-73.8745378,notmentioned,negative,notmentioned,notmentioned,notmentioned,notmentioned,notmentioned,negative,,,,
1594984864815,5.0,Good sense of direction and clean subway stations.,34 St - Herald Sq Subway Station,Subway station,40.7500869,-73.98812699999999,notmentioned,positive,notmentioned,notmentioned,notmentioned,notmentioned,notmentioned,positive,,,,
1524356908092,5.0,Excellent museum with a lot of upcoming expansion. Special exhibits included David Bowie is (photography was not allowed) and Rodin,Brooklyn Museum,Art museum||Museum||Tourist attraction,40.6712062,-73.9636306,notmentioned,notmentioned,notmentioned,notmentioned,notmentioned,positive,notmentioned,notmentioned,,,,
1481501975769,5.0,Had an enjoyable time here. Went to the museum as a last second idea but turned out to be the best choice for the evening. They had a free salsa concert in the lobby and many couples and friends were dancing. They sold cheap drinks and food to go along with the event. As for the museum itself it's less than $20 entry per adult but this night it was free to roam about. There are five floors and each offered interesting exhibits from around the world and time periods. The vast space between each set allows you to better focus on each piece before moving on to the next. Would recommend if you have at least an hour to kill.,Brooklyn Museum,Art museum||Museum||Tourist attraction,40.6712062,-73.9636306,notmentioned,notmentioned,positive,notmentioned,positive,positive,positive,positive,,,,
1580693713035,3.0,"I passed through the space and although various installations are instagrammable and “cool,” I left genuinely confused by this concept. It feels more like a showroom than a shopping experience.",SHOWFIELDS,Shopping mall||Department store,40.726417399999995,-73.9945208,notmentioned,notmentioned,notmentioned,notmentioned,negative,notmentioned,notmentioned,negative,,,,
1535372222139,5.0,Kids had fun,Heckscher Playground,Playground||Tourist attraction,40.7684641,-73.9772285,notmentioned,notmentioned,notmentioned,notmentioned,positive,notmentioned,notmentioned,notmentioned,,,,
1491681606501,5.0,"A great place to go on weekends! I was here on Opening day, and it was surprisingly crowd less. Inexpensive food and a small train on the side, it's like a little amusement park. Great Staff!",Forest Park Carousel Amusement Village,Amusement park||Park||Tourist attraction,40.700361699999995,-73.85673059999999,notmentioned,notmentioned,neutral,notmentioned,positive,notmentioned,positive,positive,,,,
1544480703222,5.0,"First day out of the hospital, eating 3 different restaurants without going around to different places. nice!!",New World Mall,Shopping mall,40.7593415,-73.8291722,notmentioned,notmentioned,notmentioned,notmentioned,positive,notmentioned,notmentioned,positive,,,,
1551470550641,5.0,"As a venue it is great! Great views of the stage and an awsome sound quality. Food and drink was great and to be honest VERY reasonable for NYC. Only complaint tables are way way too small to eat basically they have 4 seats at 2 seat table just not big enough... I would definitely go back! We saw Ron Pope and he really is an amazing entertainer/musician. My wife and i would like to go back we were in the main venue. We would like to see what show is like in "" The Loft "" great time great place. Also if I may ...the Staff was amazing all the servers we very nice and mindful of noise and do their best not to get in the line of sight of the show... a tuff job but they do it well ... cheers",City Winery,Restaurant||Bar||Event venue||Live music venue||Tourist attraction||Wine bar||Wine store,40.7261763,-74.0060287,positive,notmentioned,negative,notmentioned,positive,notmentioned,positive,positive,,,,
1598542670340,5.0,Impressive.,The Oculus,Shopping mall||Tourist attraction,40.711399,-74.0111462,notmentioned,notmentioned,notmentioned,notmentioned,positive,notmentioned,notmentioned,positive,,,,
1523875383319,5.0,The Fulton center is very nice and large lot of shop mostly food shop nee more security.,The Fulton Center,Shopping mall,40.7105207,-74.0089376,positive,notmentioned,notmentioned,notmentioned,notmentioned,notmentioned,notmentioned,negative,,,,
1530746159783,4.0,Lots of stores,Gateway Center,Shopping mall,40.6525,-73.8713889,notmentioned,notmentioned,notmentioned,notmentioned,positive,notmentioned,notmentioned,notmentioned,,,,
1519093707402,5.0,Great place to see an interesting part of the city. Went to visit the Sea of Light public art installation and the shops nearby kept me busy.,Seaport District NYC,Historical landmark,40.7064783,-74.0032751,notmentioned,notmentioned,notmentioned,positive,positive,notmentioned,notmentioned,positive,,,,
1555038811404,5.0,"A beautiful serene man made park along the shore of the Bronx River surrounded by old industrial buildings and 2 expressways with a long steep entrance on both sides with a winding path, perfect for speed and dexterity tests of all kinds, and even an opening to step into the river.",Concrete Plant Park,Park||Tourist attraction,40.826481699999995,-73.88502489999999,notmentioned,notmentioned,negative,positive,notmentioned,notmentioned,notmentioned,positive,,,,
1529449265164,5.0,You can enter the gift shop without buying a ticket,Solomon R. Guggenheim Museum,Modern art museum||Art museum||Museum||Tourist attraction,40.7829796,-73.9589706,notmentioned,notmentioned,notmentioned,notmentioned,notmentioned,notmentioned,positive,notmentioned,,,,
1516223981846,5.0,Always a delight!,Brooklyn Botanic Garden,Botanical garden||Environmental organization||Tourist attraction||Wedding venue,40.669509999999995,-73.9625044,notmentioned,notmentioned,notmentioned,notmentioned,positive,notmentioned,notmentioned,positive,,,,
1614447937107,1.0,Stupid tree. Stay home.,Rockefeller Center Christmas Tree,Tourist attraction||Event venue||Historical landmark||Ice skating rink,40.7587105,-73.97858719999999,negative,notmentioned,notmentioned,negative,notmentioned,notmentioned,notmentioned,notmentioned,,,,
1564517733654,5.0,It's historic and one of my best neighborhoods,Poe Park,Park||Tourist attraction,40.8648137,-73.8945473,notmentioned,notmentioned,notmentioned,notmentioned,notmentioned,positive,notmentioned,positive,,,,
1566328862120,5.0,Beautiful best time ever,Apollo Theater,Performing arts theater||Entertainer||Live music venue||Performing arts group||Stage||Tourist attraction,40.810018,-73.950056,notmentioned,notmentioned,notmentioned,positive,positive,notmentioned,notmentioned,positive,,,,
1607028329004,5.0,It is a go to place every one knows and like shopping for deals.,Jamaica Colosseum Mall,Shopping mall,40.7075,-73.7963889,notmentioned,notmentioned,notmentioned,notmentioned,positive,notmentioned,positive,notmentioned,,,,
1564833638834,2.0,"It was ..aahh ok- we purchased tickets on line & saved the time on line, as there were a number of school trips that day. The shark display was really nice; the remainder of the aquarium is outdated & small - the tank glass could use a good cleaning, as there dirty. The sea lion show was nothing really to see, as it lasted maybe 10 min an that's with the trainers talking about the tanks / facility., etc. Can't say that I will be back any time soon...",New York Aquarium,Aquarium||Tourist attraction,40.574010099999995,-73.9760005,notmentioned,negative,notmentioned,notmentioned,negative,notmentioned,neutral,negative,,,,
1497202825236,5.0,I.have.alway.enjoy.that.park,St. Nicholas Park,Park||Tourist attraction,40.8174689,-73.94874759999999,notmentioned,notmentioned,notmentioned,positive,notmentioned,notmentioned,notmentioned,notmentioned,,,,
1508788911463,5.0,"Beautiful wildlife refuge! It’s hard to imagine in a place like NY, but this gem is an oasis nestled among the hustle and bustle of it all. We had an amazing morning of walking and birdwatching. Lots of great shorebirds (Dunlins, Black-bellied Plovers, Yellowlegs and more), but be sure to bring your scope. Some of the views are distant. Also, the location seems like it’d be better to view at night. The morning sun made for harsh viewing conditions. Hope to get back again soon!",Jamaica Bay Wildlife Refuge,Visitor center||Tourist attraction||Wildlife refuge,40.6167124,-73.824973,notmentioned,notmentioned,notmentioned,positive,positive,notmentioned,notmentioned,positive,,,,
1582603203022,4.0,Such a great park. You can definitely get a great workout while meeting new people.,McCarren Park,Park||Tourist attraction,40.7210549,-73.95244,notmentioned,notmentioned,notmentioned,positive,positive,notmentioned,notmentioned,positive,,,,
1515156523434,5.0,You find everything you are looking for,Five Towns Shopping Center,Shopping mall,40.6369495,-73.7388982,notmentioned,notmentioned,notmentioned,notmentioned,notmentioned,notmentioned,notmentioned,positive,,,,
1529623172358,5.0,"Beautiful landscaping all spring and summer long. Well designed and well maintained paths the rest of the year. A good view of the statue of liberty, and the ferry there leaves from here. DON'T BUY FERRY TICKETS FROM THE PEOPLE WHO APPROACH YOU. They're ripping you off. Buy from the booth inside the historical site.",The Battery,Park||Tourist attraction,40.703140999999995,-74.0159996,notmentioned,notmentioned,notmentioned,positive,positive,positive,negative,negative,,,,
1569284217028,5.0,"Too much better than expected If Top of the Rock was able to see the Empire State well and the night view was attractive, the One World Observatory was very satisfying to see the whole of New York. One of the must-visit places in New York",One World Observatory,Tourist attraction,40.713006199999995,-74.013173,notmentioned,notmentioned,notmentioned,positive,positive,notmentioned,notmentioned,positive,,,,
1494081109921,5.0,"VERY recommended, if you are in NY you can not stop going",One World Trade Center,Business center||Tourist attraction,40.7127431,-74.0133795,notmentioned,notmentioned,notmentioned,notmentioned,positive,notmentioned,notmentioned,notmentioned,,,,
1549225680496,5.0,I like this place it quiet and beautiful,Brooklyn Botanic Garden,Botanical garden||Environmental organization||Tourist attraction||Wedding venue,40.669509999999995,-73.9625044,notmentioned,notmentioned,notmentioned,positive,notmentioned,notmentioned,notmentioned,positive,,,,
1606819204651,2.0,Cop all over the place,City Hall Park,Park||City park||Tourist attraction,40.7124142,-74.0065164,negative,notmentioned,notmentioned,notmentioned,notmentioned,notmentioned,notmentioned,notmentioned,,,,
1590848201054,5.0,Top!!!!!!,Rockefeller Center Christmas Tree,Tourist attraction||Event venue||Historical landmark||Ice skating rink,40.7587105,-73.97858719999999,notmentioned,notmentioned,notmentioned,notmentioned,notmentioned,notmentioned,notmentioned,positive,,,,
1464660213853,5.0,"Very good place to play soccer football, players of all nationalities",Corporal Thompson Park,Park||Tourist attraction,40.637932,-74.11885509999999,notmentioned,notmentioned,notmentioned,notmentioned,positive,notmentioned,notmentioned,positive,,,,
1549663898780,4.0,"Great place to bring the kids for a day of outdoors activities. Price is also good for this place. In the winter you have an ice skating rink. Summer there's a roller skating rink. Plus they open up the sprinklers for people and kids to cool off. I can almost guarantee the kids will have a fun day outing. There's also a few places to choose so you can have a quick bite to eat. Only one major problem with this location and that is, there is no parking lot. It can be difficult at times to find a spot to park at.",LeFrak Center at Lakeside Prospect Park Brooklyn,Ice skating rink||Bicycle rental service||Boat rental service||Ice skating instructor||Roller skating rink||Tourist attraction,40.6572752,-73.9641611,positive,notmentioned,negative,positive,positive,notmentioned,positive,neutral,,,,
1562762829154,4.0,"So nice to be able to be near the water when you're in Bay Ridge. They could empty the trash a bit more frequently, but for the most part the promenade along BR's west side is always clean. The path along the south edge of Brooklyn is not as smooth, wide, or maintained.",Shore Road Park and Parkway,Park||Tourist attraction,40.6150368,-74.03878379999999,positive,positive,negative,positive,notmentioned,notmentioned,notmentioned,neutral,,,,
1549225562997,5.0,"So cozy, like my home.",Museum of the Moving Image,Museum||Arts organization||Event venue||Movie theater||Tourist attraction,40.7564375,-73.9235881,notmentioned,notmentioned,notmentioned,notmentioned,notmentioned,notmentioned,notmentioned,positive,,,,
1581799796535,5.0,Great place!!,Madison Square Garden,Arena||Event venue||Stadium||Tourist attraction,40.7505045,-73.9934387,notmentioned,notmentioned,notmentioned,notmentioned,positive,notmentioned,notmentioned,positive,,,,
1479314881896,3.0,Really nice open space but can be unsafe for smaller kids. The hard surface and jagged edges around the park is a parents worst nightmare,J.J. Byrne Playground,Playground||Tourist attraction,40.6727125,-73.9840273,negative,notmentioned,notmentioned,positive,notmentioned,notmentioned,notmentioned,notmentioned,,,,
1606352421280,4.0,This park was a pleasant surprise! Love how there's only one entrance/exit. As a mom this ia comforting to know.,Crowley Playground,Playground||Park,40.7294242,-73.8798079,notmentioned,notmentioned,notmentioned,positive,notmentioned,notmentioned,notmentioned,positive,,,,
1569421516453,2.0,"The building is perfect for a museum, but the collection is either not well presented, or is simply poor.",Solomon R. Guggenheim Museum,Modern art museum||Art museum||Museum||Tourist attraction,40.7829796,-73.9589706,notmentioned,notmentioned,notmentioned,notmentioned,notmentioned,negative,notmentioned,notmentioned,,,,
1600432654278,4.0,"Real nice shopping area. Good parking. North Shore Market is a terrific grocery store. Prices don't seem bad. Great selection. Deli/ cheese section it top notch, as is fruit/vegetable section.",Whitestone Plaza,Shopping mall,40.7942104,-73.8079949,notmentioned,notmentioned,positive,notmentioned,positive,notmentioned,positive,positive,,,,
1498010898583,3.0,Museum oriented to the social.,Museum of the City of New York,Local history museum||History museum||Museum||Tourist attraction,40.7924939,-73.95190889999999,notmentioned,notmentioned,notmentioned,notmentioned,notmentioned,neutral,notmentioned,neutral,,,,
1595354189396,1.0,"Right now, full of garbage",Flushing Meadows Corona Park,Park||Tourist attraction,40.7400275,-73.8406953,negative,negative,notmentioned,notmentioned,notmentioned,notmentioned,notmentioned,notmentioned,,,,
1543678658907,5.0,Very clean station,Laurelton LIRR Station,Parking lot,40.6682201,-73.7510095,notmentioned,positive,notmentioned,notmentioned,notmentioned,notmentioned,notmentioned,notmentioned,,,,
1564405096860,4.0,It's a huge chocolate store!,Hershey's Chocolate World,Chocolate shop||Candy store||Tourist attraction,40.7593411,-73.9843095,notmentioned,notmentioned,notmentioned,notmentioned,positive,notmentioned,notmentioned,notmentioned,,,,
1522345731474,4.0,"Love it over there I go for my gym workouts..good location placement...metro North railroad, Mta Bus and Subway stations right there on the corner..parking is free and good views of the water",River Plaza,Shopping mall,40.8730677,-73.9083538,notmentioned,notmentioned,positive,positive,notmentioned,notmentioned,positive,positive,,,,
1596996906932,5.0,Beautiful shady resting spot for Leonard Bernstein.,Grave of Leonard Bernstein,Historical landmark,40.6569948,-73.9893081,notmentioned,notmentioned,notmentioned,positive,notmentioned,notmentioned,notmentioned,positive,,,,
1566557762047,5.0,I love this place. It is clean and very family friendly. They just expanded it and it's gorgeous,Gantry Plaza State Park,Park||Tourist attraction,40.7455077,-73.9587485,positive,positive,notmentioned,notmentioned,positive,notmentioned,notmentioned,positive,,,,
1591566276839,2.0,The line is very long...I must waited for 2 hours just for 1 hour shopping,Rego Center,Shopping mall,40.7332336,-73.86381639999999,notmentioned,notmentioned,notmentioned,notmentioned,notmentioned,notmentioned,negative,notmentioned,,,,
1599574554968,5.0,"A very...very....very central place. Lovely entrance to Central Park, nice shopping center, oh well it's just close to everything. I'm trying to avoid it when crowded but that's what New York is all about.",Columbus Circle,Historical landmark,40.7680797,-73.9818957,notmentioned,notmentioned,positive,positive,positive,notmentioned,notmentioned,neutral,,,,
1577970192031,5.0,Place to.buy Ticket for Liberty statue sightseeing.... come early... it's gonna be very crowded,Castle Clinton National Monument,Monument||Historical place||Tourist attraction,40.7034401,-74.0168023,notmentioned,notmentioned,notmentioned,notmentioned,neutral,notmentioned,notmentioned,neutral,,,,
1553182475710,4.0,"Very worthwhile to stroll thru. There are some sobering artifacts on display, like a section of windows from the 1st plane striking the tower.",9/11 Tribute Museum,Museum||History museum||Local history museum||Non-profit organization||Tour operator||Tourist attraction,40.7079743,-74.0137432,notmentioned,notmentioned,notmentioned,notmentioned,positive,positive,notmentioned,neutral,,,,
1565217399207,4.0,"Not as well maintained as NYs other parks, but a great flight of stairs to work your legs on.",Morningside Park,Park||Baseball field||Basketball court||BBQ area||Dog park||Playground||Tourist attraction,40.8060712,-73.9585391,negative,notmentioned,notmentioned,neutral,notmentioned,notmentioned,notmentioned,notmentioned,,,,
1560611017943,5.0,Absolutely recommend going here anytime of the year (avoid rainy days obviously! ). I finally reached see the Holiday Work out Show in December also it was stunning! The skills on display with the amount of detail in the models is really mind boggling. Worth every penny to incorporate some cheer to ones own holidays!,Liz Christy,Community garden||Garden||Tourist attraction,40.7240965,-73.9919101,notmentioned,notmentioned,notmentioned,positive,positive,notmentioned,positive,positive,,,,
1484078265598,4.0,"Beautiful place, become a member!",New York Botanical Garden,Botanical garden||Educational institution||Garden||Museum||Tourist attraction||Wedding venue,40.8617054,-73.8806902,notmentioned,notmentioned,notmentioned,positive,notmentioned,notmentioned,notmentioned,positive,,,,
1564488284376,5.0,It was amazing I went to a tennis game and it was nice,Crotona Park,Park||Barbecue area||Baseball field||Basketball court||Fishing pond||Handball court||Tennis court||Tourist attraction,40.8400367,-73.8953489,notmentioned,notmentioned,notmentioned,notmentioned,positive,notmentioned,notmentioned,positive,,,,
1540743864375,5.0,"A store full of chocolate, that's all there really is to tell. It's not even that expensive! Especially in the month before Halloween they have great discounts, so leave some space in your bag or suitcase!",Hershey's Chocolate World,Chocolate shop||Candy store||Tourist attraction,40.7593411,-73.9843095,notmentioned,notmentioned,notmentioned,notmentioned,positive,notmentioned,positive,positive,,,,
1539220261342,5.0,Beautiful views!,Empire Fulton Ferry,Park||Tourist attraction,40.7042545,-73.9932122,notmentioned,notmentioned,notmentioned,positive,notmentioned,notmentioned,notmentioned,notmentioned,,,,
1516243537067,5.0,"Fun family time, lots to do and there's parking.",Flushing Meadows Corona Park,Park||Tourist attraction,40.7400275,-73.8406953,notmentioned,notmentioned,positive,notmentioned,positive,notmentioned,notmentioned,positive,,,,
1524333891025,4.0,"Nice view, and very clean island. There are alot Beautiful trees",Franklin D. Roosevelt Four Freedoms State Park,Park||Tourist attraction,40.7506105,-73.96052399999999,notmentioned,positive,notmentioned,positive,notmentioned,notmentioned,notmentioned,positive,,,,
1534895584488,5.0,super interesting and didactic for children,New York Aquarium,Aquarium||Tourist attraction,40.574010099999995,-73.9760005,notmentioned,notmentioned,notmentioned,notmentioned,positive,notmentioned,notmentioned,positive,,,,
1600636532226,5.0,Great peice of architecture art. Must visit whether ur nyc resident or visitor. Great mall and walk around tour,Vessel,Tourist attraction,40.7538073,-74.0021537,notmentioned,notmentioned,positive,notmentioned,positive,positive,notmentioned,positive,,,,
1564927513966,5.0,Great place.,The Great Lawn,Park||Athletic field||Baseball field||Softball field||Tourist attraction,40.7816915,-73.96641919999999,notmentioned,notmentioned,notmentioned,notmentioned,notmentioned,notmentioned,notmentioned,positive,,,,
1564164066561,5.0,Fast commute,Willis Avenue Bridge,Bridge||Tourist attraction,40.8034427,-73.9289983,notmentioned,notmentioned,positive,notmentioned,notmentioned,notmentioned,notmentioned,positive,,,,
1350480356102,5.0,It fills good be moving around the city again,Prospect Park Zoo,Zoo||Tourist attraction,40.6657246,-73.9644911,notmentioned,notmentioned,neutral,notmentioned,notmentioned,notmentioned,notmentioned,positive,,,,
1521574696908,4.0,"A historic area and fun place to visit. Good views of the Brooklyn bridge from upper deck in the mall section. Best to see on a nice, warm, sunny weekend day when there's apt to be street performers and lots going on. Many restaurants to choose from, ranging from $ to $$$$. The inside mall has some good shops and a food court that is pretty reasonable. If you drive parking in nearby lots is very expensive. You must be living right if you can find free street parking.",Seaport District NYC,Historical landmark,40.7064783,-74.0032751,notmentioned,notmentioned,negative,positive,positive,positive,negative,positive,,,,
1510624942313,4.0,"Looks enormous, but the gym space is small, we are looking for a specific time where it is less crowded.",Ocean Breeze Athletic Complex,Sports complex||Park||Recreation center,40.5831074,-74.0751483,notmentioned,notmentioned,notmentioned,notmentioned,negative,notmentioned,notmentioned,neutral,,,,
1501220674277,5.0,"The Museum of Modern Art is my favorite place to go. Every floor is fantastic. MOMA is placed to relax and enjoy the sculptures, photographs, painting and the history.",The Museum of Modern Art,Modern art museum||Art museum||Museum||Tourist attraction,40.7614327,-73.97762159999999,notmentioned,notmentioned,notmentioned,notmentioned,positive,positive,notmentioned,positive,,,,
1574122547255,5.0,Massively awesome.,St. Patrick's Cathedral,Cathedral||Catholic church||Tourist attraction,40.7586117,-73.9761953,notmentioned,notmentioned,notmentioned,notmentioned,positive,notmentioned,notmentioned,positive,,,,
